stop_id,stop_code,stop_name,stop_desc,stop_lat,stop_lon
1140,,CRISTIANO KRAEMER 87,,-30.117728,-51.206618
1234,,NONOAI 248/260,,-30.086557,-51.215723
1017,,NONOAI 1438,,-30.093093,-51.223299
1233,,NONOAI AL 247,,-30.086536,-51.215805
1243,,NONOAI 11,,-30.084967,-51.214736
6256,,TERESOPOLIS 3690,,-30.084142,-51.214063
5328,,SENADOR SALGADO FILHO 133,,-30.03088,-51.226214
6132,,TRAMANDAI 850,,-30.136471,-51.225864
668,,TRAMANDAI 899,,-30.136702,-51.225795
1148,,CRISTIANO KRAEMER DF 551,,-30.120225,-51.202654
6258,,RETIRO DA PONTA GROSSA ,,-30.184867,-51.203182
6027,,FREDERICO MENTZ AL 241,,-29.981352,-51.197313
2237,,IPIRANGA 3420,,-30.04879,-51.195843
5179,,IPIRANGA DF 3161,,-30.047393,-51.196809
6255,,FREDERICO MENTZ ,,-29.979879,-51.196849
365,,EDGAR PIRES DE CASTRO 9762,,-30.198709,-51.126795
372,,EDGAR PIRES DE CASTRO 10125,,-30.20223,-51.120019
373,,EDGAR PIRES DE CASTRO 10190,,-30.202161,-51.119994
379,,EDGAR PIRES DE CASTRO 9100,,-30.194267,-51.129891
353,,EDGAR PIRES DE CASTRO 6902,,-30.18674,-51.13686
352,,EDGAR PIRES DE CASTRO 7137,,-30.186848,-51.136885
347,,EDGAR PIRES DE CASTRO 6849,,-30.184416,-51.138865
386,,EDGAR PIRES DE CASTRO 6000,,-30.178429,-51.14284
384,,EDGAR PIRES DE CASTRO 5408,,-30.174335,-51.146887
336,,EDGAR PIRES DE CASTRO DF 3747,,-30.16278,-51.156421
337,,EDGAR PIRES DE CASTRO 3747,,-30.162665,-51.156723
325,,EDGAR PIRES DE CASTRO 3360,,-30.160656,-51.159845
321,,EDGAR PIRES DE CASTRO 2653,,-30.156405,-51.164801
5887,,OSWALDO PEREIRA DE FREITAS 175,,-30.06027,-51.162936
6036,,IPIRANGA HOSPITAL DA PUC,,-30.055866,-51.172713
3832,,ESTADOS 1545,,-29.98423,-51.180448
71,,RETIRO DA PONTA GROSSA 3605,,-30.184903,-51.209868
5902,,EDGAR PIRES DE CASTRO 2600,,-30.156342,-51.164974
5303,,EDGAR PIRES DE CASTRO AL 2069,,-30.156173,-51.170047
288,,EDGAR PIRES DE CASTRO 1405,,-30.15525,-51.176887
280,,EDGAR PIRES DE CASTRO 967,,-30.155642,-51.18195
154,,EDGAR PIRES DE CASTRO 420,,-30.156613,-51.187003
150,,EDGAR PIRES DE CASTRO DF 202,,-30.158073,-51.189046
6254,,AFONSO ALVARES 65,,-30.113685,-51.254242
229,,FRANCISCA DE OLIVEIRA VIEIRA 2998,,-30.190746,-51.16033
3597,,BENJAMIN CONSTANT 1340,,-30.013346,-51.194735
3599,,BENJAMIN CONSTANT 1118,,-30.011618,-51.193606
3598,,BENJAMIN CONSTANT 1151,,-30.011758,-51.193774
3600,,BENJAMIN CONSTANT 932,,-30.010093,-51.192786
3602,,BENJAMIN CONSTANT 777,,-30.008643,-51.192277
2474,,CANUDOS AL 88,,-30.09336,-51.175048
2473,,CANUDOS 349,,-30.094935,-51.17166
388,,EDGAR PIRES DE CASTRO DF 5580,,-30.175824,-51.145618
1783,,DR CARLOS BARBOSA 977,,-30.064028,-51.21214
2731,,ANGELO CRIVELLARO 255,,-30.049628,-51.169515
4644,,MARTIM FELIX BERTA 3300,,-30.036677,-51.113833
5123,,DR AFFONSO SANMARTIN DF 299,,-30.05045,-51.167281
3859,,FRANCISCO TREIN 116,,-30.011761,-51.159724
4484,,GUAIBA-LOMBA DO PINHEIRO AL 744,,-30.116432,-51.113041
4489,,ORQUIDEA DF 122,,-30.117503,-51.110024
4986,,BERNARDINO SILVEIRA PASTORIZA DF 921,,-29.990864,-51.099233
4987,,BERNARDINO SILVEIRA PASTORIZA 961,,-29.990774,-51.098894
2164,,MARIANTE 856,,-30.035155,-51.204066
1058,,CAMPO NOVO DF 400,,-30.13997,-51.214431
5292,,FRANCISCA DE OLIVEIRA VIEIRA 231,,-30.209905,-51.179975
194,,FRANCISCA DE OLIVEIRA VIEIRA 949,,-30.204527,-51.175436
193,,FRANCISCA DE OLIVEIRA VIEIRA 691,,-30.206483,-51.176693
200,,FRANCISCA DE OLIVEIRA VIEIRA 916,,-30.20469,-51.175586
227,,FRANCISCA DE OLIVEIRA VIEIRA 2630,,-30.192892,-51.16318
2061,,BARAO DO AMAZONAS 643,,-30.049553,-51.186481
6037,,IPIRANGA AL 3780,,-30.05125,-51.194118
1805,,PROF OSCAR PEREIRA 1521,,-30.063632,-51.206114
4684,,TEN ALBERTO MENDES JUNIOR 320,,-30.022948,-51.110448
4773,,ANTONIO SEVERINO 1493,,-30.023587,-51.096078
228,,FRANCISCA DE OLIVEIRA VIEIRA 2787,,-30.192392,-51.161818
863,,DR CAMPOS VELHO DF 615,,-30.092274,-51.239967
5019,,ASSIS BRASIL AL 8787,,-29.97797,-51.114529
5020,,ASSIS BRASIL 9216,,-29.978133,-51.114602
96,,PONTA GROSSA 180,,-30.186172,-51.19544
90,,PONTA GROSSA 2325,,-30.185598,-51.196589
3626,,GEN COUTO DE MAGALHAES DF 1685,,-30.014473,-51.184865
221,,JUCA BATISTA 8101,,-30.185598,-51.174608
3751,,GEN COUTO DE MAGALHAES 1922,,-30.014586,-51.182297
220,,JUCA BATISTA 8000,,-30.185489,-51.174541
312,,EDGAR PIRES DE CASTRO 4440,,-30.167864,-51.153812
311,,EDGAR PIRES DE CASTRO 4357,,-30.167118,-51.154409
4051,,DONA ALZIRA 46,,-30.009429,-51.138344
4066,,DONA ALZIRA AL 660,,-30.003743,-51.138564
4068,,DONA ALZIRA 330,,-30.00653,-51.138075
3270,,MAE APOLINARIA MATIAS BATISTA DF 93,,-30.047744,-51.135311
5018,,BERNARDINO SILVEIRA DE AMORIM DF 115,,-29.981565,-51.113727
2972,,LIBERO BADARO DF 413,,-30.021775,-51.171106
6253,,GEN COUTO DE MAGALHAES 1294,,-30.015838,-51.18821
6252,,MARQUES DO POMBAL DF 1710,,-30.018745,-51.186663
6250,,GEN COUTO DE MAGALHAES 1488,,-30.014988,-51.185967
6251,,PORTUGAL 908,,-30.016663,-51.183104
6249,,CRISTOVAO COLOMBO 3095,,-30.017599,-51.189354
2356,,CRISTOVAO COLOMBO 3084,,-30.017529,-51.18939
6237,,ENG ALEXANDRE MARTINS DA ROSA 200,,-29.979049,-51.184519
4315,,OTAVIANO JOSE PINTO DF 3001,,-30.222608,-51.099045
4314,,OTAVIANO JOSE PINTO 3001,,-30.2225,-51.098965
62,,SERRARIA 761,,-30.150301,-51.21775
3962,,SERTORIO 5200,,-29.997929,-51.152781
49,,SERRARIA AL 1707,,-30.158067,-51.219504
48,,SERRARIA DF 1844,,-30.159406,-51.22013
5689,,INTENDENTE ALFREDO AZEVEDO 1077,,-30.073999,-51.190138
4616,,ANTONIO JOSE DE SANTANA DF 989,,-30.084535,-51.11598
4615,,ANTONIO JOSE DE SANTANA 954,,-30.085604,-51.115262
40,,SERRARIA 2087,,-30.161636,-51.220322
4611,,BORBA GATO-LOMBA DO PINHEIRO 465,,-30.105603,-51.109733
3649,,SERTORIO 2131,,-30.003177,-51.184028
3860,,FRANCISCO TREIN DF 98,,-30.011536,-51.159836
5675,,RIO GRANDE 125,,-30.128873,-51.202694
6124,,CARLOS SILVEIRA MARTINS PACHECO DF 36,,-30.010837,-51.159278
434,,ECON NILO WULFF DF 939,,-30.150415,-51.145546
2037,,GUILHERME ALVES AL1010,,-30.056772,-51.189097
2059,,GUILHERME ALVES DF 595,,-30.052279,-51.186596
2271,,GUILHERME ALVES DF 39,,-30.047441,-51.184676
2062,,GUILHERME ALVES 300,,-30.049712,-51.185316
2060,,GUILHERME ALVES DF 469,,-30.051415,-51.186098
390,,EDGAR PIRES DE CASTRO 5160,,-30.17195,-51.149092
326,,EDGAR PIRES DE CASTRO DF 3130,,-30.158401,-51.161251
307,,EDGAR PIRES DE CASTRO 2264,,-30.156276,-51.16745
6248,,EDGAR PIRES DE CASTRO DF 11405,,-30.207184,-51.113225
299,,EDGAR PIRES DE CASTRO 1827,,-30.155921,-51.172286
153,,EDGAR PIRES DE CASTRO DF 370,,-30.156983,-51.187409
675,,JUCA BATISTA DF 954,,-30.141661,-51.218961
73,,SERRARIA 3100,,-30.182214,-51.209165
380,,EDGAR PIRES DE CASTRO 9316,,-30.196654,-51.12799
2042,,GUILHERME ALVES DF 901,,-30.055007,-51.188164
2983,,SAO BENEDITO DF 674,,-30.046241,-51.165984
2992,,SAO BENEDITO 461,,-30.044583,-51.165631
2982,,PROF ABILIO AZAMBUJA 655,,-30.047842,-51.16617
6125,,PROF PEDRO SANTA HELENA DF 680,,-30.048942,-51.164967
1056,,CAMPO NOVO 246,,-30.14124,-51.214967
4598,,BORBA GATO-LOMBA DO PINHEIRO 147,,-30.107087,-51.106848
626,,CEL MARCOS 851,,-30.123378,-51.24785
625,,CEL MARCOS 880,,-30.123287,-51.247879
5013,,PAULINO 450,,-29.990251,-51.091007
3588,,FREDERICO MENTZ DF 1050,,-29.991243,-51.200571
3587,,FREDERICO MENTZ 1050,,-29.990965,-51.200385
2730,,PROF PEDRO SANTA HELENA 80,,-30.050729,-51.170844
2290,,CARLOS TREIN FILHO 1287,,-30.034204,-51.186104
3594,,BENJAMIN CONSTANT 1552,,-30.014855,-51.195831
3648,,SERTORIO 1988,,-30.003035,-51.185463
3565,,PRESIDENTE FRANKLIN ROOSEVELT 641,,-30.005243,-51.201939
4628,,JOAO ANTONIO LOPES DF 322,,-30.081316,-51.11572
898,,PRUDENCIA DF 334,,-30.1131,-51.229861
2485,,AFONSO LOURENCO MARIANTE 2254,,-30.111344,-51.156346
241,,RETIRO DA PONTA GROSSA 427,,-30.179301,-51.180421
4953,,FRANCISCO TALAIA DE MOURA DF 345,,-30.00291,-51.090739
2861,,MONTENEGRO 235,,-30.040881,-51.181563
3857,,FRANCISCO TREIN DF 326,,-30.013295,-51.159602
3856,,FRANCISCO TREIN AL 326,,-30.013102,-51.159545
3123,,FRANCISCO TREIN DF 707,,-30.017333,-51.158982
3851,,UMBU 701,,-30.015224,-51.162233
5031,,LUIZA ROCCO DF 200,,-30.073109,-51.203312
2471,,BARCELLOS 1706,,-30.088822,-51.180341
2470,,BARCELLOS DF 1076,,-30.088667,-51.180821
1317,,BARCELLOS 280,,-30.08639,-51.183627
1316,,BARCELLOS 844,,-30.086818,-51.183342
6142,,BARCELLOS 1045,,-30.087924,-51.1822
2662,,BORBOREMA DF 781,,-30.073895,-51.169896
2663,,BORBOREMA DF 777,,-30.073781,-51.169901
3005,,SAO BENEDITO DF 50,,-30.040647,-51.165667
2472,,BARCELLOS 2258,,-30.089668,-51.179476
1319,,BARCELLOS DF 104,,-30.085585,-51.185015
2933,,PLINIO BRASIL MILANO 1023,,-30.020739,-51.180963
2395,,DR VERGARA 5352,,-30.11549,-51.180485
4470,,JOAO ANTONIO SILVEIRA DF 5070,,-30.145047,-51.113467
4469,,JOAO ANTONIO SILVEIRA AL 5070,,-30.145345,-51.112937
108,,RETIRO DA PONTA GROSSA DF 946,,-30.180527,-51.186178
2514,,VALTER DE AZEREDO DF 81,,-30.143368,-51.125754
4347,,VAREJAO 3198,,-30.226715,-51.070982
215,,FRANCISCA DE OLIVEIRA VIEIRA 1435,,-30.197625,-51.170562
214,,FRANCISCA DE OLIVEIRA VIEIRA DF 1435,,-30.197596,-51.17064
6246,,FRANCISCA DE OLIVEIRA VIEIRA 488,,-30.207647,-51.178511
2979,,ANGELO CRIVELLARO 525,,-30.048695,-51.166566
2991,,SAO LUCAS DF 295,,-30.043341,-51.166973
5742,,BARCELLOS AL 980,,-30.0911,-51.178355
2278,,CACAPAVA 190,,-30.042928,-51.183969
4318,,VAREJAO 193,,-30.21937,-51.099471
2511,,PADRE PEDRO LEONARDI ,,-30.144792,-51.127457
1804,,PROF OSCAR PEREIRA AL 1564,,-30.064103,-51.205985
5591,,CRISTIANO KRAEMER 1078,,-30.125407,-51.202087
1638,,JOAO AMORIM DE ALBUQUERQUE 20,,-30.031627,-51.229475
1136,,CRISTIANO KRAEMER 930,,-30.124706,-51.202171
1135,,CRISTIANO KRAEMER DF 970,,-30.125063,-51.202209
1144,,CRISTIANO KRAEMER 719,,-30.121877,-51.202573
1078,,CRISTIANO KRAEMER 5016,,-30.145442,-51.203124
1158,,CRISTIANO KRAEMER 3121,,-30.140483,-51.196551
5968,,CRISTIANO KRAEMER DF 2540,,-30.137085,-51.195235
1163,,CRISTIANO KRAEMER 2582,,-30.137158,-51.195117
1160,,CRISTIANO KRAEMER DF 2440,,-30.135051,-51.196045
1161,,CRISTIANO KRAEMER 2440,,-30.134663,-51.196112
1180,,CRISTIANO KRAEMER DF 1817,,-30.131072,-51.198035
6119,,CRISTIANO KRAEMER DF 2116,,-30.132706,-51.196989
5307,,CRISTIANO KRAEMER 1863,,-30.131163,-51.198038
6245,,EDUARDO PRADO 1663,,-30.133388,-51.218296
1146,,CRISTIANO KRAEMER 736,,-30.122083,-51.202472
499,,WENCESLAU ESCOBAR 3390,,-30.117968,-51.253159
520,,PEREIRA PASSOS AL 520,,-30.101543,-51.258995
656,,DEA COUFAL AL 467,,-30.131408,-51.231774
6063,,OCTAVIO DE SOUZA 1237,,-30.086788,-51.22395
1129,,CRISTIANO KRAEMER 1657,,-30.130193,-51.20001
1130,,CRISTIANO KRAEMER 1712,,-30.129833,-51.200691
5898,,CRISTIANO KRAEMER 755,,-30.125812,-51.202125
1132,,CRISTIANO KRAEMER 1410,,-30.127518,-51.201843
5908,,CRISTIANO KRAEMER 285,,-30.118167,-51.203376
1149,,CRISTIANO KRAEMER 230,,-30.117857,-51.203629
1541,,AURELIANO DE FIGUEIREDO PINTO 100,,-30.042855,-51.230128
1551,,AURELIANO DE FIGUEIREDO PINTO DF 455,,-30.043059,-51.227491
1559,,AURELIANO DE FIGUEIREDO PINTO DF 575,,-30.043282,-51.225172
1597,,AURELIANO DE FIGUEIREDO PINTO 862,,-30.043542,-51.222325
1596,,AURELIANO DE FIGUEIREDO PINTO DF 876,,-30.043625,-51.222223
2376,,GEDEON LEITE 2545,,-30.144229,-51.175799
2181,,CRISTOVAO COLOMBO DF 508,,-30.025677,-51.212777
1138,,RODRIGUES DA FONSECA 1883,,-30.116802,-51.208139
1122,,RODRIGUES DA FONSECA 1810,,-30.116484,-51.20853
1121,,RODRIGUES DA FONSECA AL 1647,,-30.116095,-51.209766
1117,,RODRIGUES DA FONSECA 1519,,-30.115684,-51.211531
2719,,VIDAL DE NEGREIROS AL 39,,-30.061926,-51.168712
1764,,PROF OSCAR PEREIRA 2620,,-30.073253,-51.202974
1306,,PROF OSCAR PEREIRA AL 4796,,-30.086716,-51.187844
6179,,GAMAL ABDEL NASSER 195,,-29.999546,-51.095914
4972,,GAMAL ABDEL NASSER 230,,-29.999679,-51.094771
3583,,SAO JORGE DF,,-29.994053,-51.202128
709,,CAVALHADA 5520,,-30.123847,-51.223931
5016,,ASSIS BRASIL 8085,,-29.982642,-51.116224
2337,,CARLOS TREIN FILHO 1150,,-30.031394,-51.186634
5346,,CARLOS TREIN FILHO DF 1150,,-30.031386,-51.186717
1147,,CRISTIANO KRAEMER 571,,-30.120418,-51.20272
3405,,AMADEU F DE OLIVEIRA FREITAS 180,,-30.038283,-51.126981
3406,,AMADEU F DE OLIVEIRA FREITAS 255,,-30.037412,-51.127098
6242,,AMADEU F DE OLIVEIRA FREITAS 65,,-30.0396,-51.126887
2841,,MARANGUAPE 21,,-30.042907,-51.180076
2850,,ENG ANTONIO CARLOS TIBIRICA 128,,-30.047597,-51.176846
2879,,ENG ANTONIO CARLOS TIBIRICA 470,,-30.04753,-51.173663
2852,,ENG ANTONIO CARLOS TIBIRICA 280,,-30.047574,-51.175579
1855,,VICENTE DA FONTOURA 1046,,-30.049543,-51.203505
2880,,ENG ANTONIO CARLOS TIBIRICA DF 520,,-30.047587,-51.172693
2205,,MOSTARDEIRO DF 86,,-30.028849,-51.206774
4682,,TEN ALBERTO MENDES JUNIOR 170,,-30.02282,-51.112108
2211,,MOSTARDEIRO 333,,-30.02867,-51.203681
2183,,INDEPENDENCIA 925,,-30.029389,-51.211725
2173,,INDEPENDENCIA 794,,-30.029305,-51.213317
2170,,INDEPENDENCIA DF 654,,-30.029333,-51.21477
3567,,FARRAPOS DF 3045,,-30.005827,-51.200872
1531,,MAUA DF,,-30.029037,-51.234522
1528,,MAUA DF,,-30.029768,-51.236018
6241,,PONTA GROSSA DF 480,,-30.187842,-51.193084
93,,PONTA GROSSA 337,,-30.187064,-51.194039
97,,PONTA GROSSA 510,,-30.187943,-51.19285
3903,,FORTE 171,,-30.012116,-51.153053
3904,,FORTE 164,,-30.011851,-51.153003
5595,,BENTO GONCALVES 1015,,-30.05334,-51.203132
3733,,PADRE LEOPOLDO BRENTANO DF 647,,-29.976466,-51.191754
2088,,SANTANA 701,,-30.044239,-51.210589
2466,,PROF OSCAR PEREIRA 5420,,-30.08968,-51.182917
1315,,PROF OSCAR PEREIRA 5119,,-30.088487,-51.185114
1305,,PROF OSCAR PEREIRA 4821,,-30.086906,-51.187839
1294,,PROF OSCAR PEREIRA 4059,,-30.084042,-51.19502
1872,,PROF OSCAR PEREIRA 3727,,-30.081739,-51.197341
1874,,PROF OSCAR PEREIRA 3590,,-30.080391,-51.19761
1873,,PROF OSCAR PEREIRA 3585,,-30.080388,-51.197693
1870,,PROF OSCAR PEREIRA 3290,,-30.078305,-51.19912
1879,,PROF OSCAR PEREIRA 3187,,-30.077573,-51.199884
1880,,PROF OSCAR PEREIRA 3170,,-30.077529,-51.199818
1766,,PROF OSCAR PEREIRA DF 2427,,-30.071556,-51.203819
1765,,PROF OSCAR PEREIRA 2473,,-30.072052,-51.203689
1759,,PROF OSCAR PEREIRA 1932,,-30.067344,-51.205529
1761,,PROF OSCAR PEREIRA 1824,,-30.066228,-51.205756
1760,,PROF OSCAR PEREIRA 1771,,-30.066207,-51.205841
1812,,PROF OSCAR PEREIRA 1229,,-30.061113,-51.206857
1811,,PROF OSCAR PEREIRA 1040,,-30.059705,-51.207628
454,,ECON NILO WULFF DF 357,,-30.151848,-51.142302
94,,PONTA GROSSA 263,,-30.187091,-51.193861
4569,,GUAIBA-LOMBA DO PINHEIRO 493,,-30.114101,-51.112621
4570,,GUAIBA-LOMBA DO PINHEIRO DF 505,,-30.11411,-51.112532
389,,EDGAR PIRES DE CASTRO 5580,,-30.175739,-51.145598
6094,,EDGAR PIRES DE CASTRO 4880,,-30.170498,-51.15073
2891,,SAO MATEUS 636,,-30.046926,-51.171013
3686,,CEARA 463,,-29.999892,-51.191033
3641,,EDU CHAVES 468,,-30.000804,-51.1897
2631,,SILVADO DF 206,,-30.066846,-51.183398
3637,,SOUZA REIS 443,,-30.002824,-51.190335
5936,,PROF FREDERICO GUILHERME GAELZER DF 168,,-30.048044,-51.169748
5937,,PROF FREDERICO GUILHERME GAELZER 168,,-30.047929,-51.169704
555,,PEREIRA PASSOS 1047,,-30.103163,-51.254362
556,,PEREIRA PASSOS DF 1025,,-30.10311,-51.254289
557,,PEREIRA PASSOS 742,,-30.102258,-51.256834
512,,PEREIRA PASSOS 331,,-30.100512,-51.262388
518,,PEREIRA PASSOS 382,,-30.100844,-51.261132
519,,PEREIRA PASSOS DF 520,,-30.101586,-51.259096
510,,PEREIRA PASSOS 104,,-30.100042,-51.263577
509,,PEREIRA PASSOS 27,,-30.099928,-51.264379
2448,,PROF OSCAR PEREIRA 7401,,-30.102333,-51.171851
2459,,PROF OSCAR PEREIRA DF 6336,,-30.096339,-51.177824
2457,,PROF OSCAR PEREIRA AL 5690,,-30.091354,-51.180919
4491,,JOAO DE OLIVEIRA REMIAO 6252,,-30.123846,-51.107822
2436,,PROF OSCAR PEREIRA 8754,,-30.112606,-51.176685
2445,,PROF OSCAR PEREIRA 7850,,-30.103683,-51.171879
2464,,PROF OSCAR PEREIRA 6720,,-30.097672,-51.175959
1298,,PROF OSCAR PEREIRA DF 4226,,-30.084401,-51.193091
2447,,PROF OSCAR PEREIRA 6906,,-30.098377,-51.174249
2121,,SAO LUIZ 494,,-30.047353,-51.204561
2086,,SANTANA 1045,,-30.046934,-51.208675
2089,,SANTANA 726,,-30.044116,-51.210579
2090,,SANTANA DF 440,,-30.042082,-51.212111
2198,,RAMIRO BARCELOS 430,,-30.022942,-51.211376
2928,,PLINIO BRASIL MILANO 805,,-30.021461,-51.182988
1472,,GETULIO VARGAS 1415,,-30.057399,-51.222829
2613,,DOLORES DURAN 1820,,-30.088771,-51.121499
5528,,LOUREIRO DA SILVA DF 515,,-30.037001,-51.234758
6240,,GUILHERME ALVES DF1409,,-30.060005,-51.190899
5164,,DR ANTONIO MAZZAFERRO NETO DF 15,,-30.163819,-51.1737
4575,,JOAO DE OLIVEIRA REMIAO AL 5185,,-30.110595,-51.11044
4487,,GUAIBA-LOMBA DO PINHEIRO 572,,-30.114715,-51.112961
4486,,GUAIBA-LOMBA DO PINHEIRO DF 614,,-30.115279,-51.113084
4298,,OTAVIANO JOSE PINTO AL2055,,-30.236721,-51.094397
962,,JOAO SALOMONI DF 824,,-30.113656,-51.217861
2218,,CRISTOVAO COLOMBO 1271,,-30.020595,-51.207245
2220,,CRISTOVAO COLOMBO 1512,,-30.019018,-51.205989
3455,,TEN ARY TARRAGO 2030,,-30.024083,-51.131481
3298,,TEN ARY TARRAGO 735,,-30.035573,-51.135225
4762,,ADELINO FERREIRA JARDIM 536,,-30.020452,-51.101411
5671,,ADELINO FERREIRA JARDIM 526,,-30.02046,-51.101517
1942,,GEN JONATHAS BORGES FORTES 972,,-30.075185,-51.187004
1943,,GEN JONATHAS BORGES FORTES 930,,-30.075085,-51.186925
1939,,GEN JONATHAS BORGES FORTES DF 809,,-30.075365,-51.188469
1940,,GEN JONATHAS BORGES FORTES 809,,-30.075416,-51.18835
1935,,GEN JONATHAS BORGES FORTES 601,,-30.075842,-51.190552
1934,,GEN JONATHAS BORGES FORTES DF 577,,-30.075798,-51.190718
2378,,COSTA GAMA DF 1530,,-30.133902,-51.17565
1293,,ALPES 546/584,,-30.088431,-51.195707
1291,,ALPES 732/888,,-30.089711,-51.19528
1288,,PROF OSCAR PEREIRA 3901,,-30.082971,-51.196454
1869,,PROF OSCAR PEREIRA 3263,,-30.078238,-51.1993
1902,,GEN JONATHAS BORGES FORTES 339,,-30.076304,-51.193025
1885,,GEN JONATHAS BORGES FORTES ,,-30.077037,-51.196114
1894,,GEN JONATHAS BORGES FORTES 91,,-30.076847,-51.195693
1901,,GEN JONATHAS BORGES FORTES DF 338,,-30.076266,-51.193215
3079,,SAPE AL 50,,-30.017851,-51.163761
4722,,MARTIM FELIX BERTA 789,,-30.023784,-51.107724
3929,,SERTORIO 4400,,-29.999302,-51.16067
3930,,SERTORIO 4455,,-29.999205,-51.160447
3743,,ENG ALEXANDRE MARTINS DA ROSA DF 40,,-29.979896,-51.18495
3742,,ENG ALEXANDRE MARTINS DA ROSA 40,,-29.979845,-51.185014
6238,,ENG ALEXANDRE MARTINS DA ROSA DF 200,,-29.978966,-51.184373
3749,,ENG ALEXANDRE MARTINS DA ROSA AL PORTÃO 12,,-29.977663,-51.183899
1443,,JOSE DE ALENCAR 310,,-30.059633,-51.228524
3750,,ENG ALEXANDRE MARTINS DA ROSA DF PORTAO 12,,-29.977674,-51.183817
1435,,JOSE DE ALENCAR 295,,-30.059674,-51.228763
1445,,JOSE DE ALENCAR 515,,-30.059952,-51.226729
1473,,JOSE DE ALENCAR 1013,,-30.060656,-51.221553
2229,,DR TIMOTEO 208,,-30.016804,-51.200228
3543,,FELIX DA CUNHA 153,,-30.014121,-51.203275
5446,,FELIX DA CUNHA DF 488,,-30.017222,-51.202546
2223,,FELIX DA CUNHA 667,,-30.018786,-51.202265
5530,,LOUREIRO DA SILVA DF 1995,,-30.034924,-51.222386
5529,,LOUREIRO DA SILVA DF 515,,-30.037055,-51.234314
1512,,LOUREIRO DA SILVA DF,,-30.036953,-51.235244
5527,,LOUREIRO DA SILVA DF,,-30.036881,-51.236184
1511,,LOUREIRO DA SILVA NN515,,-30.037286,-51.236374
5432,,SILVA SO 355,,-30.04041,-51.204023
2299,,GOETHE EF HABBIB'S,,-30.027952,-51.19969
4949,,BERNARDINO SILVEIRA DE AMORIM DF 3875,,-30.005795,-51.092222
4922,,BERNARDINO SILVEIRA DE AMORIM DF 3200,,-30.004485,-51.099082
4928,,BERNARDINO SILVEIRA DE AMORIM 2825,,-30.002986,-51.100731
4874,,BERNARDINO SILVEIRA DE AMORIM 2071,,-29.996466,-51.107062
6144,,BERNARDINO SILVEIRA DE AMORIM DF 1990,,-29.999265,-51.106564
4877,,BERNARDINO SILVEIRA DE AMORIM DF 1370,,-29.992618,-51.108387
4864,,BERNARDINO SILVEIRA DE AMORIM DF 334,,-29.983877,-51.112061
5023,,BERNARDINO SILVEIRA DE AMORIM DF 235,,-29.982678,-51.112735
4937,,MAURICIO SELIGMAN 527,,-30.007238,-51.095086
4658,,DELEGADO ELY CORREA PRADO DF 45,,-30.040886,-51.104407
4661,,DELEGADO ELY CORREA PRADO 150,,-30.038798,-51.104379
4662,,DELEGADO ELY CORREA PRADO 327,,-30.038241,-51.104268
6235,,RICARDO LEONIDAS RIBAS 75,,-30.146958,-51.131637
6234,,SETE MIL CENTO VINTE CINCO 760,,-30.145226,-51.133023
2843,,MONTENEGRO 37,,-30.041779,-51.17972
1393,,ORFANOTROFIO 750,,-30.080749,-51.219539
1394,,ORFANOTROFIO NN 555,,-30.079999,-51.218819
2422,,RINCAO 233,,-30.115022,-51.163869
2477,,RINCAO 71,,-30.114138,-51.165928
5978,,SARGENTO MANOEL ARRUDA 364,,-30.046874,-51.146404
2756,,PITORESCA DF POSTO DE SAUD,,-30.071013,-51.155474
5681,,VICENTE MONTEGGIA 1029,,-30.102394,-51.223413
6158,,PASSO DAS PEDRAS DF 133,,-30.019722,-51.125765
2794,,IPIRANGA 7464,,-30.055467,-51.16283
6233,,DIARIO DE NOTICIAS DF 700,,-30.090216,-51.24874
832,,DIARIO DE NOTICIAS 700,,-30.090204,-51.24865
6096,,GAURAMA 197,,-30.09885,-51.228414
6232,,DR ANTONIO MAZZAFERRO NETO DF 730,,-30.157091,-51.173725
5071,,DR ANTONIO MAZZAFERRO NETO 740,,-30.157093,-51.173777
6231,,DR ANTONIO MAZZAFERRO NETO AL 506,,-30.158782,-51.173787
6230,,DR ANTONIO MAZZAFERRO NETO AL 173,,-30.162236,-51.17373
1240,,NONOAI 100,,-30.085288,-51.214867
707,,CAVALHADA 5793,,-30.127064,-51.222781
6208,,JOAO ANTONIO SILVEIRA AL 7626,,-30.134996,-51.095868
3187,,ALBERTO NEPOMUCENO 75,,-30.056229,-51.143826
6228,,INDIANA 180,,-30.021906,-51.154851
6225,,TULIO DE ROSE 330,,-30.022651,-51.158935
6227,,TULIO DE ROSE 260,,-30.022725,-51.16052
5737,,VEREADOR TEREZIO MEIRELES DF 316,,-30.024888,-51.11741
4672,,POA-CIDADE JOIA DF 381,,-30.023882,-51.115646
4696,,MARTIM FELIX BERTA DF 1881,,-30.030919,-51.107076
847,,DIARIO DE NOTICIAS ,,-30.082105,-51.246667
848,,DIARIO DE NOTICIAS 300,,-30.081924,-51.246536
168,,LAMI 5988,,-30.216485,-51.1212
844,,ICARAI AL 1368,,-30.091037,-51.241935
842,,ICARAI DF 1368,,-30.09098,-51.242005
6223,,VAREJAO 601,,-30.221226,-51.092296
4349,,VAREJAO 8685,,-30.228735,-51.066686
2390,,COSTA GAMA DF 1606,,-30.130304,-51.17599
2391,,COSTA GAMA 1602,,-30.130021,-51.175879
2828,,UM CEFER UM DF 170,,-30.054977,-51.152357
5958,,UM CEFER UM 349,,-30.053687,-51.14831
3175,,UM CEFER UM 276,,-30.054373,-51.150386
5300,,PADRE PEDRO LEONARDI 44,,-30.144292,-51.125975
2536,,JAIME LINO DOS SANTOS FILHO 197,,-30.104185,-51.140006
2537,,JAIME LINO DOS SANTOS FILHO 152,,-30.104076,-51.139907
5897,,EUSTAQUIO INACIO DA SILVEIRA 300,,-30.21043,-51.176729
2486,,AFONSO LOURENCO MARIANTE 2347,,-30.111227,-51.156074
1109,,MONTE CRISTO 433,,-30.119243,-51.212708
242,,RETIRO DA PONTA GROSSA DF 74,,-30.178775,-51.176531
1256,,CLEMENCIANO BARNASQUE 616,,-30.085353,-51.207305
5934,,SIMOES LOPES NETO 175,,-30.086437,-51.207005
2610,,CAPITAO CARLOS LAMARCA AL 35,,-30.088065,-51.122447
318,,SCHNEIDER 1872,,-30.161489,-51.164291
322,,SCHNEIDER 2240,,-30.160537,-51.160722
6220,,SCHNEIDER 1501,,-30.16274,-51.168726
302,,SCHNEIDER 1254,,-30.163297,-51.17082
304,,SCHNEIDER 1512,,-30.162826,-51.169323
5110,,SCHNEIDER 764,,-30.164306,-51.176878
258,,SCHNEIDER 490,,-30.163844,-51.178138
274,,SCHNEIDER 300,,-30.163163,-51.180179
273,,SCHNEIDER DF 320,,-30.163259,-51.180044
269,,SCHNEIDER DF 110,,-30.162344,-51.18259
268,,SCHNEIDER 80,,-30.162195,-51.18279
1037,,NONOAI DF 557,,-30.088794,-51.217661
1120,,RODRIGUES DA FONSECA DF 1647,,-30.115973,-51.209935
5618,,CAVALHADA 3999,,-30.111126,-51.226863
910,,CAVALHADA DF 3999,,-30.110828,-51.226829
3115,,SATURNINO DE BRITO 1400,,-30.030175,-51.150887
6219,,CHAPEU DO SOL 1959,,-30.185791,-51.161685
6218,,CHAPEU DO SOL DF 1959,,-30.185778,-51.161603
237,,CHAPEU DO SOL 1771,,-30.183598,-51.162316
6217,,CHAPEU DO SOL DF 2143,,-30.187254,-51.161145
240,,CHAPEU DO SOL 1790,,-30.184118,-51.162041
6216,,AFONSO LOURENCO MARIANTE DF 6656,,-30.099383,-51.127027
2572,,AFONSO LOURENCO MARIANTE 6654,,-30.099482,-51.127301
2570,,AFONSO LOURENCO MARIANTE DF 6500,,-30.10055,-51.129429
2571,,AFONSO LOURENCO MARIANTE 6500,,-30.100464,-51.129391
6215,,AFONSO LOURENCO MARIANTE 6266,,-30.102074,-51.131552
6214,,AFONSO LOURENCO MARIANTE DF 6266,,-30.102474,-51.131817
2567,,AFONSO LOURENCO MARIANTE DF 5743,,-30.105311,-51.13446
2566,,AFONSO LOURENCO MARIANTE 5743,,-30.10537,-51.134407
6213,,AFONSO LOURENCO MARIANTE 5600,,-30.10529,-51.135491
6211,,AFONSO LOURENCO MARIANTE 5530,,-30.104558,-51.137065
6212,,AFONSO LOURENCO MARIANTE DF 5600,,-30.105356,-51.135525
6210,,AFONSO LOURENCO MARIANTE DF 5510,,-30.104472,-51.137342
1717,,TERESOPOLIS 2225,,-30.072873,-51.208891
1757,,PROF OSCAR PEREIRA 1951,,-30.067715,-51.205475
1810,,PROF OSCAR PEREIRA 977,,-30.059335,-51.207953
1800,,PROF OSCAR PEREIRA 584,,-30.056765,-51.210018
1799,,PROF OSCAR PEREIRA 410,,-30.05682,-51.210081
1471,,GETULIO VARGAS 1526,,-30.057937,-51.222823
1798,,PROF OSCAR PEREIRA 400,,-30.054337,-51.211218
1489,,GETULIO VARGAS 1250,,-30.055595,-51.22249
1488,,GETULIO VARGAS 1243,,-30.055636,-51.222579
1493,,GETULIO VARGAS 880,,-30.052406,-51.222054
2580,,SANTO DIAS DA SILVA AL 505,,-30.096634,-51.132732
2760,,RAFAEL CLARK DF 607,,-30.069354,-51.15577
2786,,MARCONE DF 470,,-30.058012,-51.160687
1567,,WASHINGTON LUIZ DF 1116,,-30.037559,-51.228927
1553,,PRAIA DE BELAS DF 422,,-30.042056,-51.227907
1555,,BORGES DE MEDEIROS DF 1555,,-30.041285,-51.228525
6130,,LAMI DF 1526,,-30.212426,-51.164115
172,,HEITOR VIEIRA 614,,-30.211373,-51.18126
4284,,LAMI DF 6820,,-30.219332,-51.115489
4283,,LAMI 6820,,-30.219133,-51.115768
243,,JUCA BATISTA 7424,,-30.18004,-51.175768
5196,,JUCA BATISTA DF 8455,,-30.190711,-51.175014
6209,,TAQUARA 57,,-30.123033,-51.103503
6202,,SCHNEIDER DF 976,,-30.163607,-51.171959
6201,,SCHNEIDER AL 797,,-30.164348,-51.174693
247,,JUCA BATISTA DF 7129,,-30.175588,-51.176179
6206,,ESTADOS 2001,,-29.979118,-51.178752
3983,,ESTADOS DF 2001,,-29.978777,-51.17873
3981,,ESTADOS DF 1909,,-29.980422,-51.179247
3982,,ESTADOS 1909,,-29.980328,-51.179132
3831,,ESTADOS 1383,,-29.985744,-51.180855
3833,,ESTADOS 1601,,-29.983865,-51.180244
3980,,CLOVIS PAIM GRIVOT ,,-29.977135,-51.183216
6205,,JOSE ALOISIO FILHO ,,-29.977751,-51.182981
4944,,TARCILA MORAES DUTRA DF 320,,-30.002884,-51.093829
32,,ORLEAES DF 560,,-30.162804,-51.224005
1200,,AMAPA 657,,-30.108635,-51.215695
1222,,AMAPA DF 1541,,-30.106266,-51.207025
1211,,AMAPA 1309,,-30.107323,-51.208919
1209,,AMAPA 1303,,-30.10753,-51.210201
6204,,AMAPA 1541,,-30.106306,-51.206979
1210,,AMAPA 1300,,-30.107503,-51.210338
1212,,AMAPA 1530,,-30.107256,-51.208966
1202,,AMAPA DF 919,,-30.109007,-51.213514
5197,,AMAPA 1085,,-30.108752,-51.212065
1208,,AMAPA 1064,,-30.108702,-51.212131
1201,,AMAPA 776,,-30.108585,-51.215592
971,,AMAPA 212,,-30.107495,-51.220166
6203,,AMAPA 435,,-30.108193,-51.217471
969,,AMAPA ,,-30.10755,-51.220266
972,,AMAPA 398,,-30.108032,-51.217893
3852,,ANTONIO JOAQUIM MESQUITA 296,,-30.013768,-51.16157
828,,WENCESLAU ESCOBAR 874,,-30.098131,-51.248028
3128,,ENG WALTER BOEHL NC,,-30.022675,-51.153603
4655,,DELEGADO ELY CORREA PRADO 915,,-30.035797,-51.107174
3186,,ALBERTO NEPOMUCENO 121,,-30.056792,-51.143586
179,,JUCA BATISTA 10564,,-30.206694,-51.17958
244,,JUCA BATISTA DF 7440,,-30.179688,-51.175884
4714,,JOSE PEREIRA DE BORBA 405,,-30.023724,-51.109155
4715,,JOSE PEREIRA DE BORBA DF 405,,-30.023747,-51.108859
4702,,PILADE FREDIANI ,,-30.02592,-51.108352
4704,,DR VARGAS NETO 820,,-30.024918,-51.108554
4974,,GAMAL ABDEL NASSER DF 340,,-29.99977,-51.094016
2779,,OSWALDO PEREIRA DE FREITAS 137,,-30.061397,-51.162734
875,,ICARAI 688,,-30.084613,-51.240333
5238,,DOM FELICIANO DF 285,,-30.029883,-51.222416
5885,,ALBION DF 402,,-30.05811,-51.165291
2777,,ALBION 402,,-30.058061,-51.165367
3647,,SERTORIO DF 1789,,-30.002631,-51.186878
1556,,PRAIA DE BELAS DF 420,,-30.041476,-51.227908
1550,,PRAIA DE BELAS 576,,-30.043604,-51.227604
5476,,PLINIO BRASIL MILANO 2148,,-30.016333,-51.171875
870,,ICARAI DF 920,,-30.08667,-51.240925
3094,,FRANCISCO TREIN 707,,-30.017405,-51.159055
868,,DR CAMPOS VELHO 1237,,-30.092717,-51.23355
3067,,DR NILO PECANHA 2863,,-30.028034,-51.162286
985,,DR CAMPOS VELHO 1516,,-30.093382,-51.231053
1651,,PROF ANNES DIAS 295,,-30.030211,-51.222654
2354,,CRISTOVAO COLOMBO 2999,,-30.017671,-51.190821
1659,,CONCEICAO 165,,-30.024898,-51.219946
1779,,CEL GASTAO HASLOCHER MAZERON DF 75,,-30.061364,-51.214185
1535,,BORGES DE MEDEIROS DF 1210,,-30.048797,-51.229489
5484,,CAVALHADA 3496,,-30.108799,-51.227028
1452,,BORGES DE MEDEIROS 3000,,-30.052383,-51.229901
3811,,ASSIS BRASIL 1144,,-30.007939,-51.174228
4060,,ASSIS BRASIL 4737,,-30.007029,-51.14057
4192,,ASSIS BRASIL 5898,,-29.998953,-51.132378
5928,,JD. OUTEIRAL ,,-30.134284,-51.094856
3501,,CASCAIS ,,-30.019723,-51.120381
3500,,CASCAIS ,,-30.019457,-51.121289
3506,,DEZIDERIO SEVERINO 350,,-30.017765,-51.120982
4933,,ANTONIO FRANCISCO LISBOA 433,,-30.007651,-51.096684
6199,,GEN BARRETO VIANA 1074,,-30.030204,-51.158484
3099,,GEN BARRETO VIANA 1065,,-30.0303,-51.158428
3098,,CANANEIA DF 338,,-30.031524,-51.157639
3097,,CANANEIA ,,-30.031614,-51.157636
3103,,CANANEIA 55,,-30.031534,-51.155221
3102,,CANANEIA 137,,-30.031775,-51.156193
6170,,GERMANO BASLER DF 311,,-30.023167,-51.11397
4703,,DR VARGAS NETO DF 840,,-30.024924,-51.108637
4674,,GERMANO BASLER 285,,-30.022852,-51.114028
3509,,JUSCELINO KUBITSCHEK DE OLIVEIRA ,,-30.019715,-51.118969
4133,,GOMES DE CARVALHO 48,,-30.012306,-51.127058
3510,,JUSCELINO KUBITSCHEK DE OLIVEIRA ,,-30.019797,-51.11882
4134,,GOMES DE CARVALHO 55,,-30.011953,-51.12712
4158,,CHATEAUBRIAND DF 179,,-30.016296,-51.122761
4671,,VEREADOR TEREZIO MEIRELES DF 65,,-30.021308,-51.117017
1846,,SANTANA 1652,,-30.051904,-51.205081
5739,,POA-CIDADE JOIA 306,,-30.023765,-51.117185
3435,,MANOEL ELIAS 2001,,-30.033601,-51.121505
5615,,BENTO GONCALVES 7712,,-30.070731,-51.141044
5613,,BENTO GONCALVES 8583,,-30.075839,-51.132972
3761,,MARECHAL JOSE INACIO DA SILVA SN,,-30.014436,-51.178385
5617,,BENTO GONCALVES DF 7712,,-30.070991,-51.140841
5663,,SAO BENEDITO DF 256,,-30.042614,-51.165932
1245,,TERESOPOLIS 3648,,-30.083669,-51.213751
2349,,SILVA JARDIM 252,,-30.024355,-51.190254
6196,,PAULINO AL 639,,-29.990394,-51.089569
5014,,PAULINO DF 521,,-29.990332,-51.08926
3135,,DR JOAO SIMPLICIO A DE CARVALHO 186,,-30.019644,-51.154377
5922,,PAULINO DF 521,,-29.990322,-51.089565
4047,,DONA ADDA MASCARENHAS DE MORAES 265,,-30.012409,-51.135622
5360,,BORGES DE MEDEIROS 530,,-30.0312,-51.22767
2565,,SAO FRANCISCO DF 1259,,-30.093338,-51.135232
4052,,DONA ADDA MASCARENHAS DE MORAES 65,,-30.010641,-51.135452
4053,,DONA ADDA MASCARENHAS DE MORAES 50,,-30.010692,-51.135362
4049,,BISPO JOAO SCALABRINI 365,,-30.014074,-51.134504
3462,,ALEXANDRE LUIZ DF 193,,-30.017702,-51.132705
5096,,PAULO BLASCHKE DF 540,,-30.015637,-51.132705
3348,,ALBERTO PASQUALINI 875,,-30.030258,-51.139662
3349,,ALBERTO PASQUALINI 874,,-30.030127,-51.139849
3392,,MARIO MENEGHETTI 134,,-30.033356,-51.132884
3391,,MARIO MENEGHETTI 151,,-30.033279,-51.132827
3360,,ALBERTO PASQUALINI DF 1022,,-30.031204,-51.136404
3397,,NILO RUSCHEL 911,,-30.033894,-51.131852
3396,,NILO RUSCHEL 818,,-30.033752,-51.131948
3235,,BOM PRINCIPIO 131,,-30.048025,-51.144932
3395,,NILO RUSCHEL DF 672,,-30.034816,-51.131828
3378,,DONA ADDA MASCARENHAS DE MORAES 814,,-30.018102,-51.136138
3377,,DONA ADDA MASCARENHAS DE MORAES 811,,-30.017987,-51.136211
6197,,PROTASIO ALVES SN,,-30.046189,-51.090308
6198,,PROTASIO ALVES SN,,-30.046324,-51.09087
5492,,DR NILO PECANHA 2576,,-30.028089,-51.166375
4883,,DONARIO BRAGA 54,,-29.997552,-51.104817
4875,,DONARIO BRAGA 18,,-29.997221,-51.106383
4964,,DIDIA JARDIM PINTO 138,,-29.995277,-51.099891
4885,,DONARIO BRAGA 102,,-29.998024,-51.102785
5901,,DIDIA JARDIM PINTO ,,-29.995247,-51.100431
4932,,ANTONIO FRANCISCO LISBOA DF 377,,-30.008055,-51.096744
4973,,GAMAL ABDEL NASSER 340,,-29.9997,-51.093969
4918,,AMALIA AVEIRO 90,,-30.008771,-51.095318
3375,,DONA ADDA MASCARENHAS DE MORAES 1051,,-30.019885,-51.136415
3376,,DONA ADDA MASCARENHAS DE MORAES 1004,,-30.019542,-51.136295
5984,,NESTOR VALDMAN 89,,-30.026863,-51.138624
5985,,NESTOR VALDMAN DF 89,,-30.026791,-51.138614
4046,,DONA ADDA MASCARENHAS DE MORAES 389,,-30.013753,-51.135749
4045,,DONA ADDA MASCARENHAS DE MORAES 356,,-30.013811,-51.135672
4124,,BISPO JOAO SCALABRINI 290,,-30.014155,-51.134359
4125,,BISPO JOAO SCALABRINI 166,,-30.014243,-51.132833
4123,,PAULO BLASCHKE AL 465,,-30.014308,-51.132491
5095,,PAULO BLASCHKE 570,,-30.015745,-51.132707
3461,,PAULO BLASCHKE 727,,-30.017383,-51.132957
3367,,FRANCELICIO PORTO DF 22,,-30.030494,-51.134473
3366,,FRANCELICIO PORTO 24,,-30.030633,-51.134704
3365,,ALBERTO PASQUALINI 1295,,-30.031546,-51.135221
3359,,ALBERTO PASQUALINI 871,,-30.030714,-51.138082
3362,,ALBERTO PASQUALINI 874,,-30.030603,-51.1382
3361,,ALBERTO PASQUALINI 1002,,-30.031082,-51.136561
3300,,MARIO MENEGHETTI 57,,-30.033486,-51.134649
3301,,MARIO MENEGHETTI 16,,-30.033415,-51.134661
3394,,NILO RUSCHEL 672,,-30.034831,-51.131913
3385,,NILO RUSCHEL 175,,-30.039548,-51.132278
4656,,DELEGADO ELY CORREA PRADO 1340,,-30.033985,-51.10651
4657,,DELEGADO ELY CORREA PRADO 1375,,-30.034005,-51.106429
4654,,DELEGADO ELY CORREA PRADO 714,,-30.035986,-51.107381
4653,,DELEGADO ELY CORREA PRADO 549,,-30.037281,-51.105822
4660,,DELEGADO ELY CORREA PRADO 480,,-30.037245,-51.10495
3496,,MANOEL ELIAS 855,,-30.023211,-51.120009
3434,,MANOEL ELIAS 1870,,-30.03373,-51.121446
3508,,MANOEL ELIAS DF 458,,-30.018933,-51.119524
4170,,MANOEL ELIAS 113,,-30.016031,-51.119233
4146,,SERTORIO 8000,,-30.000262,-51.131577
5883,,SERTORIO AL 9001,,-30.000328,-51.131611
5035,,DOM DIOGO DE SOUZA DF 200,,-30.012449,-51.154897
533,,OTTO NIEMEYER 650,,-30.109567,-51.253201
532,,OTTO NIEMEYER 601,,-30.109686,-51.253321
6195,,JOSE PEREIRA DE BORBA AL 405,,-30.023823,-51.108812
866,,DR CAMPOS VELHO 950,,-30.092293,-51.236652
867,,DR CAMPOS VELHO DF 950,,-30.092339,-51.236532
879,,CAPIVARI DF 843,,-30.082835,-51.239635
880,,CAPIVARI DF 1013,,-30.083412,-51.23796
855,,CAPIVARI 622,,-30.081957,-51.241009
849,,ICARAI DF 1174,,-30.088755,-51.241442
888,,CAPIVARI DF 1243,,-30.083462,-51.235484
840,,ICARAI 1568,,-30.093964,-51.243409
1784,,DR CARLOS BARBOSA 954,,-30.063671,-51.211982
4332,,OTAVIANO JOSE PINTO 50,,-30.241378,-51.079325
1275,,ALPES 1148,,-30.093376,-51.19251
1794,,PROF OSCAR PEREIRA 88,,-30.051727,-51.212531
328,,COSTA GAMA DF 6570,,-30.156518,-51.160955
329,,COSTA GAMA 5861,,-30.156163,-51.161035
331,,COSTA GAMA DF 5576,,-30.154763,-51.160951
5942,,COSTA GAMA 5295,,-30.152798,-51.161016
5943,,COSTA GAMA 5261,,-30.152898,-51.161089
330,,COSTA GAMA 5576,,-30.154606,-51.161036
332,,COSTA GAMA 5277,,-30.1508,-51.161433
333,,COSTA GAMA 5225,,-30.150311,-51.161369
334,,COSTA GAMA DF 4448,,-30.148553,-51.161288
335,,COSTA GAMA DF 4456,,-30.148172,-51.161234
2420,,COSTA GAMA 4527,,-30.145164,-51.162314
2421,,COSTA GAMA DF 4329,,-30.144766,-51.162353
2419,,COSTA GAMA DF 4203,,-30.143725,-51.16293
2417,,COSTA GAMA 4203,,-30.143618,-51.163156
2418,,COSTA GAMA 3705,,-30.139878,-51.167082
2389,,COSTA GAMA 3880,,-30.139132,-51.16737
2387,,COSTA GAMA 3275,,-30.138191,-51.168535
2388,,COSTA GAMA 3260,,-30.137983,-51.168693
5938,,COSTA GAMA 2970,,-30.137271,-51.170179
2386,,COSTA GAMA 3501,,-30.136976,-51.172997
2385,,COSTA GAMA DF 3501,,-30.136532,-51.173683
2379,,COSTA GAMA 2538,,-30.133816,-51.175585
2392,,COSTA GAMA DF 1560,,-30.127072,-51.175764
5853,,COSTA GAMA 1520,,-30.126559,-51.174568
2407,,COSTA GAMA DF 1366,,-30.124527,-51.17355
2408,,COSTA GAMA 1306,,-30.124052,-51.173752
2409,,COSTA GAMA DF 1166,,-30.123185,-51.174259
2410,,COSTA GAMA 1140,,-30.122975,-51.174229
2403,,COSTA GAMA 558,,-30.118563,-51.177073
2404,,COSTA GAMA 232,,-30.115623,-51.177142
2398,,COSTA GAMA 800,,-30.120261,-51.176587
2399,,COSTA GAMA DF 736,,-30.119914,-51.176821
2411,,COSTA GAMA 1009,,-30.121589,-51.175641
2402,,COSTA GAMA DF 612,,-30.118679,-51.177134
4708,,MARTIM FELIX BERTA 1216,,-30.027457,-51.107593
2938,,CRISTOVAO COLOMBO 3835,,-30.016958,-51.181364
2219,,CRISTOVAO COLOMBO 1493,,-30.018797,-51.205693
2180,,CRISTOVAO COLOMBO 508,,-30.025625,-51.212839
5120,,CRISTOVAO COLOMBO 374,,-30.026501,-51.214174
2176,,CRISTOVAO COLOMBO DF 288,,-30.026833,-51.214543
1662,,CRISTOVAO COLOMBO 10,,-30.028389,-51.217161
1602,,ERICO VERISSIMO ,,-30.045566,-51.219012
1603,,ERICO VERISSIMO ,,-30.045473,-51.218981
1487,,ERICO VERISSIMO 1500,,-30.057973,-51.217802
4707,,MARTIM FELIX BERTA 1225,,-30.027564,-51.107625
5467,,BENTO GONCALVES ,,-30.062122,-51.163519
3303,,SATURNINO DE BRITO 1425,,-30.029424,-51.150737
3112,,SATURNINO DE BRITO AL 1152,,-30.031961,-51.151049
3113,,SATURNINO DE BRITO 1183,,-30.03144,-51.150919
3057,,SATURNINO DE BRITO 1035,,-30.032944,-51.151102
3054,,SATURNINO DE BRITO 623,,-30.036358,-51.152111
3049,,SATURNINO DE BRITO 355,,-30.037863,-51.153517
3048,,SATURNINO DE BRITO 350,,-30.038296,-51.153787
3046,,SATURNINO DE BRITO DF 86,,-30.040505,-51.15393
2677,,ANGELO BARCELOS 659,,-30.066608,-51.172809
1665,,JULIO DE CASTILHOS 489,,-30.02451,-51.221875
5404,,BORGES DE MEDEIROS 658,,-30.03238,-51.227752
3487,,DEZ DE MAIO 421,,-30.023243,-51.124554
2318,,QUINTINO BOCAIUVA 59,,-30.018832,-51.197986
3855,,FRANCISCO TREIN 596,,-30.015749,-51.159188
5894,,IPIRANGA 8636,,-30.060051,-51.151348
3129,,ENG PAULO DE ARAGAO BOZANO 16,,-30.022246,-51.153461
2294,,DR NILO PECANHA DF 106,,-30.034625,-51.185156
2917,,DR NILO PECANHA AL 65,,-30.029436,-51.180705
2842,,PROTASIO ALVES 2878,,-30.042624,-51.180119
2306,,CEL LUCAS DE OLIVEIRA 740,,-30.029055,-51.194431
1060,,CIRINO PRUNES DF 100,,-30.147143,-51.21039
2947,,CRISTOVAO COLOMBO 4266,,-30.018657,-51.177784
2948,,CRISTOVAO COLOMBO AL 4105,,-30.018025,-51.178912
2936,,CRISTOVAO COLOMBO AL 3719,,-30.016996,-51.182948
2368,,CRISTOVAO COLOMBO 3437,,-30.017345,-51.185879
2937,,CRISTOVAO COLOMBO 3700,,-30.016925,-51.182997
2367,,CRISTOVAO COLOMBO 3452,,-30.01729,-51.185957
2357,,CRISTOVAO COLOMBO 3215,,-30.017502,-51.187999
2355,,CRISTOVAO COLOMBO DF 2967,,-30.017595,-51.190698
2328,,CRISTOVAO COLOMBO 2690,,-30.017683,-51.193626
2327,,CRISTOVAO COLOMBO DF 2690,,-30.017757,-51.1937
2321,,CRISTOVAO COLOMBO 2351,,-30.017868,-51.196695
2319,,CRISTOVAO COLOMBO 2250,,-30.017887,-51.198271
5419,,CRISTOVAO COLOMBO 2009,,-30.018066,-51.200351
5420,,CRISTOVAO COLOMBO 1918,,-30.018065,-51.201679
2224,,CRISTOVAO COLOMBO 1720,,-30.01818,-51.203701
2221,,CRISTOVAO COLOMBO 1675,,-30.018276,-51.20412
2200,,CRISTOVAO COLOMBO 771,,-30.024042,-51.210495
2217,,CRISTOVAO COLOMBO 1212,,-30.020861,-51.207575
2203,,CRISTOVAO COLOMBO 1013,,-30.022727,-51.209166
2199,,CRISTOVAO COLOMBO 718,,-30.02435,-51.21098
2202,,CRISTOVAO COLOMBO AL 998,,-30.022406,-51.208962
5551,,CRISTOVAO COLOMBO DF PRAÇA,,-30.017305,-51.179852
5038,,CHAPEU DO SOL AL 1988,,-30.184822,-51.161885
5458,,PADRE CACIQUE DF 1804,,-30.076565,-51.243983
377,,EDGAR PIRES DE CASTRO 8517,,-30.190237,-51.132835
4543,,JOAO DE OLIVEIRA REMIAO 7366,,-30.127659,-51.099544
3525,,VOLUNTARIOS DA PATRIA DF 2480,,-30.011481,-51.21065
3655,,FARRAPOS ,,-29.997404,-51.19654
5785,,FARRAPOS ,,-29.99741,-51.19665
6194,,A J RENNER AL 22,,-29.997444,-51.19762
3740,,MAX JUNIMAN 35,,-29.979465,-51.186404
3745,,MAX JUNIMAN 140,,-29.97757,-51.186245
3747,,MAX JUNIMAN 155,,-29.977588,-51.186157
3746,,MAX JUNIMAN ,,-29.978395,-51.186111
3744,,MAX JUNIMAN 80,,-29.979388,-51.186465
3652,,A J RENNER AL 22,,-29.996744,-51.197372
224,,LAMI 1830,,-30.212607,-51.161101
3956,,TAIM AL 127,,-29.99682,-51.155355
4319,,VAREJAO DF 193,,-30.219441,-51.099202
265,,CHAPEU DO SOL DF 929,,-30.178221,-51.167637
5195,,JUCA BATISTA 6720,,-30.177702,-51.175984
238,,CHAPEU DO SOL DF 1680,,-30.183057,-51.162609
308,,CHAPEU DO SOL 1235,,-30.179466,-51.165508
5085,,CHAPEU DO SOL DF 1235,,-30.180146,-51.164822
232,,CHAPEU DO SOL 2408,,-30.188832,-51.159625
5834,,DONA FIRMINA DF 1159,,-30.072208,-51.169188
5923,,PADRE TODESCO ,,-30.064115,-51.154102
2819,,CAPITAO PEDRO WERLANG 628,,-30.060241,-51.153604
4956,,FRANCISCO TALAIA DE MOURA 565,,-30.000715,-51.090476
4887,,PERO LOBO PINHEIRO DF 29,,-29.991221,-51.108665
4955,,FRANCISCO TALAIA DE MOURA DF 565,,-30.000749,-51.090561
4954,,FRANCISCO TALAIA DE MOURA 245,,-30.002967,-51.090662
4951,,FRANCISCO TALAIA DE MOURA 75,,-30.00487,-51.090808
4952,,FRANCISCO TALAIA DE MOURA 102,,-30.004784,-51.090884
6193,,LA PLATA SN,,-30.052421,-51.188105
6192,,VEIGA 284,,-30.0667,-51.18387
6191,,MANOEL VITORINO DF 249,,-30.066358,-51.188453
5682,,SAO BENEDITO DF 1118,,-30.04961,-51.165693
2793,,SAO BENEDITO DF 1100,,-30.049503,-51.165737
2981,,SAO BENEDITO DF 1010,,-30.048655,-51.166066
491,,LANDEL DE MOURA 537,,-30.116148,-51.254876
487,,PROF CECILIA CORSEUIL DF 285,,-30.116925,-51.256435
3927,,PANAMERICANA 901,,-30.001723,-51.151517
4064,,JOAQUIM SILVEIRA 984,,-30.000865,-51.142477
3335,,BENNO MENTZ DF 1560,,-30.02417,-51.146781
5768,,BENNO MENTZ 1560,,-30.023831,-51.146753
3337,,BENNO MENTZ 1216,,-30.021643,-51.147106
3338,,BENNO MENTZ DF 1043,,-30.020195,-51.147428
4007,,BENNO MENTZ DF 603,,-30.015831,-51.147541
4009,,BENNO MENTZ 346,,-30.013626,-51.147758
5695,,VERANOPOLIS 285,,-30.017088,-51.17372
1098,,ATILIO SUPERTTI 880,,-30.123464,-51.211822
1103,,ATILIO SUPERTTI 661,,-30.121246,-51.212474
1113,,ATILIO SUPERTTI 712,,-30.122039,-51.212178
1107,,ATILIO SUPERTTI 460,,-30.119697,-51.212814
1108,,ATILIO SUPERTTI 387,,-30.118864,-51.212965
1115,,ATILIO SUPERTTI 87,,-30.116027,-51.212003
6189,,PEDRO IVO DF 1055,,-30.0287,-51.183403
6190,,FURRIEL LUIZ ANTONIO DE VARGAS DF 238,,-30.02773,-51.182905
1116,,ATILIO SUPERTTI 54,,-30.115893,-51.211867
234,,CHAPEU DO SOL 1512,,-30.181854,-51.163342
6188,,CHAPEU DO SOL DF 1988,,-30.184778,-51.161946
6187,,CHAPEU DO SOL DF 1325,,-30.180922,-51.164114
5166,,CHAPEU DO SOL 1325,,-30.181038,-51.16412
121,,CIRINO PRUNES 352,,-30.147777,-51.212959
120,,CIRINO PRUNES 546,,-30.148234,-51.215037
4501,,JOAO DE OLIVEIRA REMIAO DF 5840,,-30.120836,-51.108556
4502,,JOAO DE OLIVEIRA REMIAO 5948,,-30.120981,-51.108394
4584,,JOAO DE OLIVEIRA REMIAO AL 4013,,-30.105563,-51.115158
4494,,JOAO DE OLIVEIRA REMIAO DF 6670,,-30.124439,-51.104899
4582,,JOAO DE OLIVEIRA REMIAO 3883,,-30.105274,-51.117134
2578,,JOAO DE OLIVEIRA REMIAO DF 3796,,-30.104772,-51.118469
2594,,JOAO DE OLIVEIRA REMIAO 2380,,-30.09627,-51.126205
2593,,JOAO DE OLIVEIRA REMIAO DF 2374,,-30.096029,-51.126616
2595,,JOAO DE OLIVEIRA REMIAO 2001,,-30.093084,-51.12995
2590,,JOAO DE OLIVEIRA REMIAO DF 1689,,-30.090973,-51.132061
2617,,DOLORES DURAN 1467,,-30.086622,-51.121993
4592,,JOAO DE OLIVEIRA REMIAO 5410,,-30.114621,-51.108746
1931,,MARIO DE ARTAGAO DF 214,,-30.066587,-51.193035
3246,,DR OTAVIO SANTOS DF 200,,-30.041427,-51.145129
3245,,DR OTAVIO SANTOS 200,,-30.041441,-51.145211
3255,,DR OTAVIO SANTOS DF 570,,-30.037887,-51.144353
3254,,DR OTAVIO SANTOS 570,,-30.037903,-51.144477
6186,,AGENOR MENDES OURIQUES DF 05,,-30.162011,-51.219583
528,,SARGENTO NICOLAU DIAS DE FARIAS DF 394,,-30.108613,-51.256637
1878,,PADRE TESCHAUER 218,,-30.079395,-51.196123
5147,,DR JOAO DENTICE DF 1013,,-30.162542,-51.13917
1349,,DORMENIO 395,,-30.076998,-51.230032
1348,,DORMENIO 448,,-30.077217,-51.230203
76,,RETIRO DA PONTA GROSSA 3353,,-30.183426,-51.208177
6185,,VAREJAO S/N,,-30.230778,-51.062038
190,,INACIO ANTONIO DA SILVA 340,,-30.209301,-51.176279
4346,,VAREJAO 3197,,-30.226608,-51.071463
4344,,VAREJAO 2311 (5145),,-30.225282,-51.0749
4345,,VAREJAO 2300 (DF 5145),,-30.225228,-51.074835
4340,,VAREJAO DF 2600,,-30.224271,-51.077223
4341,,VAREJAO 2600,,-30.224182,-51.077231
4339,,VAREJAO 2001,,-30.223405,-51.079013
4326,,VAREJAO 829,,-30.221903,-51.087214
4324,,VAREJAO DF 720,,-30.221247,-51.09413
4325,,VAREJAO DF 825,,-30.221772,-51.087641
4316,,VAREJAO 720,,-30.22117,-51.094281
4320,,VAREJAO 372,,-30.220289,-51.097245
245,,JUCA BATISTA 7279,,-30.178229,-51.17602
2416,,AFONSO LOURENCO MARIANTE 762,,-30.115919,-51.170274
2987,,SANTA IZABEL 648,,-30.045861,-51.164774
3907,,FERNANDO ABBOTT 151,,-30.006969,-51.157587
4069,,ASSIS BRASIL 4822,,-30.005461,-51.138518
6183,,TEN ARY TARRAGO DF 1632,,-30.027813,-51.131989
6182,,TEN ARY TARRAGO AL 1632,,-30.027902,-51.132112
6181,,PROTASIO ALVES DF 12388,,-30.047061,-51.092057
4754,,PROTASIO ALVES 12380,,-30.047352,-51.092842
3030,,PROTASIO ALVES 5851,,-30.041613,-51.153219
3285,,PROTASIO ALVES 7600,,-30.042334,-51.135017
3429,,PROTASIO ALVES 9131,,-30.038393,-51.120312
3430,,PROTASIO ALVES DF 9277,,-30.038334,-51.120365
3386,,PROTASIO ALVES 8129,,-30.04087,-51.130499
3387,,PROTASIO ALVES 8144,,-30.040801,-51.130524
3379,,PROTASIO ALVES 7959,,-30.041419,-51.132027
3380,,PROTASIO ALVES 7876,,-30.041331,-51.132001
4712,,WOLFRAM METZLER DF 478,,-30.024772,-51.10455
3957,,TAIM DF 55,,-29.996802,-51.156373
3658,,A J RENNER 469,,-29.992895,-51.19604
3569,,COMENDADOR TAVARES 240,,-30.000106,-51.203393
4757,,PARAISO 111,,-30.046706,-51.085327
4578,,JOAO DE OLIVEIRA REMIAO DF 4667,,-30.109233,-51.111932
2451,,PROF OSCAR PEREIRA 7086,,-30.09939,-51.172808
705,,CAVALHADA 6097,,-30.128581,-51.223397
1756,,CEL NEVES 570,,-30.068019,-51.207713
1193,,DR VERGARA 5025,,-30.117473,-51.183962
1726,,VIAMAO DF 51,,-30.069482,-51.210229
2446,,PROF OSCAR PEREIRA DF 6886,,-30.098383,-51.174407
3806,,PLINIO BRASIL MILANO 2510,,-30.011981,-51.171016
3632,,SOUZA REIS 291,,-30.004305,-51.190289
1027,,OCTAVIO DE SOUZA 1136,,-30.086198,-51.222887
6156,,IRMA TERESILDA STEFFEN 1156,,-30.025694,-51.11972
239,,CHAPEU DO SOL 1680,,-30.183109,-51.162488
263,,CHAPEU DO SOL SN,,-30.177868,-51.169323
5148,,CHAPEU DO SOL 745,,-30.178002,-51.169144
262,,CHAPEU DO SOL 500,,-30.177092,-51.171509
261,,CHAPEU DO SOL 491,,-30.17719,-51.171399
264,,CHAPEU DO SOL 929,,-30.178289,-51.167669
260,,CHAPEU DO SOL 291,,-30.177903,-51.172743
259,,CHAPEU DO SOL 212,,-30.177875,-51.17282
6180,,CHAPEU DO SOL DF 145,,-30.178642,-51.174491
5084,,CHAPEU DO SOL 169,,-30.1787,-51.174302
1139,,CRISTIANO KRAEMER 13,,-30.11769,-51.207203
4357,,EDGAR PIRES DE CASTRO 11000,,-30.211274,-51.109596
4700,,MARTIM FELIX BERTA 1423,,-30.029272,-51.10674
3829,,SERTORIO 3711,,-30.002643,-51.167928
706,,CAVALHADA DF 6075,,-30.128351,-51.223191
6178,,DR PEREIRA NETO 295,,-30.111585,-51.249543
733,,DR PEREIRA NETO 475,,-30.110961,-51.247872
5523,,D VILA DO SARGENTO DF 378,,-30.162913,-51.227646
23,,ORLEAES 64,,-30.15834,-51.226083
25,,GUAIBA 3054,,-30.156468,-51.225712
26,,GUAIBA ESQ. JACIPUIA,,-30.156431,-51.225785
216,,JUCA BATISTA 7760,,-30.181888,-51.175502
217,,JUCA BATISTA DF 7578,,-30.181537,-51.175684
4330,,OTAVIANO JOSE PINTO 3540,,-30.239374,-51.08263
766,,WENCESLAU ESCOBAR 945,,-30.099169,-51.248342
624,,DEA COUFAL AL 357,,-30.132078,-51.232874
899,,CEL HILARIO PEREIRA FORTES DF 84,,-30.111974,-51.230517
4830,,GEN TELINO CHAGASTELLES 355,,-30.004884,-51.107112
2252,,NEUSA GOULART BRIZOLA 100,,-30.039446,-51.19687
5439,,NEUSA GOULART BRIZOLA DF 600,,-30.038504,-51.192231
2246,,NEUSA GOULART BRIZOLA 550,,-30.038487,-51.192999
2251,,NEUSA GOULART BRIZOLA AL 175,,-30.038514,-51.194855
795,,DR PEREIRA NETO DF 25,,-30.106767,-51.236212
1257,,MARECHAL MESQUITA 850,,-30.083403,-51.207449
186,,PODALIRIO TEIXEIRA MACHADO 220,,-30.208993,-51.178183
185,,PODALIRIO TEIXEIRA MACHADO 207,,-30.20904,-51.178275
176,,DR CECILIO MONZA DF 10874,,-30.20925,-51.181076
1747,,PROF OSCAR PEREIRA DF 3049,,-30.076323,-51.200622
5534,,CEL GASTAO HASLOCHER MAZERON PRAÇA,,-30.060208,-51.216171
1626,,GEN LIMA E SILVA 750,,-30.039187,-51.220155
3253,,DR OTAVIO SANTOS 257,,-30.039195,-51.145023
3252,,DR OTAVIO SANTOS 330,,-30.039841,-51.145137
4860,,FRANCISCO SILVEIRA BITENCOURT 1778,,-29.991734,-51.111334
2904,,PROF CRISTIANO FISCHER 142,,-30.040855,-51.171738
3071,,DR NILO PECANHA DF 3000,,-30.028028,-51.160037
3636,,DR JOAO INACIO 1492,,-30.00322,-51.191274
6071,,CEARA 987,,-30.004409,-51.192682
6177,,VILELA TAVARES DF 90,,-30.005169,-51.190437
354,,EDGAR PIRES DE CASTRO 6924,,-30.185408,-51.137759
3842,,GRECIA DF 868,,-30.013583,-51.165231
3082,,J THADEO ONAR ,,-30.021116,-51.161288
306,,EDGAR PIRES DE CASTRO 2603,,-30.156334,-51.168037
305,,EDGAR PIRES DE CASTRO 2408,,-30.156124,-51.169821
5837,,EDGAR PIRES DE CASTRO 1840,,-30.15585,-51.172261
287,,EDGAR PIRES DE CASTRO DF 1425,,-30.155195,-51.176351
284,,EDGAR PIRES DE CASTRO DF 1055,,-30.15537,-51.180528
149,,EDGAR PIRES DE CASTRO 180,,-30.158043,-51.189157
5469,,ASSIS BRASIL 95,,-30.0078,-51.185128
3803,,BRASILIANO INDIO DE MORAES 639,,-30.011396,-51.174141
3777,,BRASILIANO INDIO DE MORAES 363,,-30.011064,-51.175402
3624,,BARAO DO COTEGIPE 219,,-30.009726,-51.189663
5563,,ASSIS BRASIL 2644,,-30.010727,-51.160716
4010,,ASSIS BRASIL 3711,,-30.010495,-51.149391
3849,,ASSIS BRASIL 2287,,-30.011363,-51.164194
3808,,ASSIS BRASIL 1908,,-30.011702,-51.168739
4019,,ASSIS BRASIL 4230,,-30.009469,-51.144241
5562,,ASSIS BRASIL 2348,,-30.011205,-51.163686
5564,,ASSIS BRASIL 2950,,-30.010359,-51.157169
5710,,ASSIS BRASIL 2840,,-30.010528,-51.159036
5726,,ASSIS BRASIL 3172,,-30.010299,-51.155354
4016,,ASSIS BRASIL 4055,,-30.009748,-51.144575
3804,,ASSIS BRASIL 1504,,-30.009242,-51.171293
5471,,ASSIS BRASIL 3522,,-30.010367,-51.151999
3814,,ASSIS BRASIL 1368,,-30.008124,-51.172361
3778,,ASSIS BRASIL 886,,-30.008403,-51.176848
931,,CAVALHADA 2540,,-30.098584,-51.231459
924,,CAVALHADA DF 3160,,-30.104171,-51.230105
925,,CAVALHADA DF 3039,,-30.102862,-51.230615
719,,EDUARDO PRADO 95,,-30.120434,-51.223772
722,,EDUARDO PRADO 136,,-30.12073,-51.223346
723,,EDUARDO PRADO 330,,-30.122615,-51.221418
724,,EDUARDO PRADO 333,,-30.122735,-51.221407
710,,EDUARDO PRADO DF 460,,-30.124242,-51.220522
718,,EDUARDO PRADO 460,,-30.124199,-51.220451
5441,,EDUARDO PRADO DF 724,,-30.127095,-51.219866
711,,EDUARDO PRADO 784,,-30.127378,-51.219585
717,,EDUARDO PRADO 900,,-30.128831,-51.218696
712,,EDUARDO PRADO 1320,,-30.130249,-51.218191
713,,EDUARDO PRADO DF 1320,,-30.130131,-51.218318
697,,EDUARDO PRADO 1648,,-30.132202,-51.217995
1199,,VICENTE MONTEGGIA DF 2539,,-30.112922,-51.213387
997,,NONOAI 1676,,-30.094809,-51.225019
998,,NONOAI 1615,,-30.094839,-51.225219
1018,,NONOAI 1463,,-30.093174,-51.223516
1019,,NONOAI 1322,,-30.092312,-51.222336
1021,,NONOAI AL 1176,,-30.091467,-51.220761
1020,,NONOAI 1209,,-30.091676,-51.221519
1022,,NONOAI 737,,-30.090199,-51.219116
1036,,NONOAI 724,,-30.090002,-51.218819
1039,,NONOAI 503,,-30.088279,-51.217272
1040,,NONOAI 388,,-30.087679,-51.216591
5752,,IPIRANGA HOSPITAL PUC,,-30.056324,-51.173766
2725,,IPIRANGA CENTRO DESPORTIV,,-30.05543,-51.170447
6026,,IPIRANGA ,,-30.055958,-51.169531
5728,,IPIRANGA 7040,,-30.055441,-51.16871
2726,,IPIRANGA 6727,,-30.055972,-51.168454
2789,,IPIRANGA 6929,,-30.055988,-51.165921
2791,,IPIRANGA 7348,,-30.055464,-51.164658
2790,,IPIRANGA 7001,,-30.055992,-51.164263
2795,,IPIRANGA 7635,,-30.056015,-51.160975
2822,,IPIRANGA 7903,,-30.056257,-51.158689
2809,,IPIRANGA 8213,,-30.057745,-51.154983
6120,,IPIRANGA 8400,,-30.05885,-51.15219
2821,,IPIRANGA 8433,,-30.059693,-51.152244
2820,,IPIRANGA 8550,,-30.058065,-51.153143
3154,,IPIRANGA DF 8803,,-30.063004,-51.150324
3153,,IPIRANGA 8901,,-30.063541,-51.150786
2694,,IPIRANGA 6103,,-30.059249,-51.179966
2698,,IPIRANGA 6311,,-30.058234,-51.176803
2697,,IPIRANGA 5900,,-30.058553,-51.179027
6020,,IPIRANGA 5790,,-30.058495,-51.182003
2049,,IPIRANGA 5200,,-30.056166,-51.186887
2038,,IPIRANGA 5067,,-30.056366,-51.18773
2005,,IPIRANGA 4017,,-30.053228,-51.193339
2035,,IPIRANGA 4775,,-30.054786,-51.190945
2036,,IPIRANGA 4760,,-30.054076,-51.191165
2003,,IPIRANGA 3849,,-30.05075,-51.195171
2006,,IPIRANGA 3914,,-30.052429,-51.193279
2233,,IPIRANGA 3391,,-30.04866,-51.196633
2039,,IPIRANGA 4952,,-30.055217,-51.188829
2231,,IPIRANGA AL 2885,,-30.045124,-51.1991
2236,,IPIRANGA DF 2881,,-30.04479,-51.198625
2146,,IPIRANGA 2640,,-30.043153,-51.200441
2145,,IPIRANGA ,,-30.043603,-51.200846
2126,,IPIRANGA DF 2511,,-30.044275,-51.20794
2081,,IPIRANGA 1600,,-30.046086,-51.211036
2067,,IPIRANGA 1489,,-30.047912,-51.214515
1607,,IPIRANGA DF 1145,,-30.04765,-51.21677
1606,,IPIRANGA 1145,,-30.048238,-51.217111
1589,,IPIRANGA 474,,-30.047838,-51.223594
1548,,IPIRANGA 321,,-30.048277,-51.224909
1544,,IPIRANGA ,,-30.048109,-51.227041
1543,,IPIRANGA ,,-30.047977,-51.228663
2078,,IPIRANGA 1801,,-30.047353,-51.212032
2127,,IPIRANGA 2555,,-30.044436,-51.207129
350,,EDGAR PIRES DE CASTRO 6200,,-30.180403,-51.14179
278,,GEDEON LEITE 605,,-30.156294,-51.182938
3264,,PROTASIO ALVES DF 7157,,-30.043852,-51.142061
2161,,MARIANTE 1076,,-30.037229,-51.203952
6176,,ATILIO SUPERTTI 600,,-30.120974,-51.212479
6175,,CEL MASSOT 1229,,-30.098345,-51.236733
994,,CAVALHADA 1902,,-30.095885,-51.226536
995,,CAVALHADA DF 1902,,-30.095991,-51.22678
5539,,BENTO GONCALVES 587,,-30.051853,-51.207148
2804,,CAPITAO PEDRO WERLANG DF 179,,-30.058189,-51.157346
6174,,CAPITAO PEDRO WERLANG 159,,-30.058243,-51.157408
2207,,VINTE QUATRO DE OUTUBRO DF 33,,-30.028234,-51.207148
2287,,CARAZINHO 427,,-30.03945,-51.183965
3603,,BENJAMIN CONSTANT 734,,-30.008563,-51.192164
1581,,LOUREIRO DA SILVA DF 1520,,-30.037693,-51.226386
5490,,LOUREIRO DA SILVA DF,,-30.038314,-51.227034
5665,,OTAVIO FRANCISCO CARUSO DA ROCHA 600,,-30.039888,-51.236759
3127,,ADAO BAINO DF 701,,-30.016945,-51.155345
2438,,PROF OSCAR PEREIRA DF 8307,,-30.110262,-51.175475
2437,,PROF OSCAR PEREIRA 8753,,-30.112499,-51.176772
2813,,DR PEREIRA DA CUNHA DF 168,,-30.063257,-51.155493
2440,,PROF OSCAR PEREIRA 8301,,-30.109531,-51.174961
36,,SERRARIA 1982,,-30.160828,-51.220493
839,,ICARAI 1539,,-30.093925,-51.243487
2546,,SAO FRANCISCO 377,,-30.098615,-51.140593
2545,,SAO FRANCISCO DF 387,,-30.098559,-51.140647
3265,,PROTASIO ALVES DF 7180,,-30.043944,-51.142012
5032,,DR JOAO DENTICE 819,,-30.162491,-51.139259
5828,,DR JOAO DENTICE DF 519,,-30.160233,-51.140587
978,,VICENTE MONTEGGIA 926,,-30.102225,-51.223375
1197,,VICENTE MONTEGGIA 2432,,-30.112387,-51.214616
1196,,VICENTE MONTEGGIA 2301,,-30.11244,-51.215364
964,,VICENTE MONTEGGIA 2001,,-30.111182,-51.218339
961,,VICENTE MONTEGGIA 1948,,-30.110848,-51.218526
967,,VICENTE MONTEGGIA DF 1836,,-30.109821,-51.219483
968,,VICENTE MONTEGGIA 1730,,-30.109257,-51.219842
958,,VICENTE MONTEGGIA 1320,,-30.106839,-51.222138
957,,VICENTE MONTEGGIA 1357,,-30.106664,-51.222273
974,,VICENTE MONTEGGIA 1272,,-30.105404,-51.222539
973,,VICENTE MONTEGGIA 1245,,-30.105324,-51.222644
6173,,JUSCELINO KUBITSCHEK DE OLIVEIRA DF 440,,-30.019912,-51.115193
6172,,JUSCELINO KUBITSCHEK DE OLIVEIRA NN 330,,-30.019823,-51.115746
6169,,GERMANO BASLER AL 15,,-30.021482,-51.113835
6168,,GERMANO BASLER ,,-30.020458,-51.113834
1632,,PAULO GAMA DF REITORIA DA U,,-30.033118,-51.218733
5239,,DOM FELICIANO DF 285,,-30.030028,-51.222638
1522,,PRESIDENTE JOAO GOULART 158,,-30.031843,-51.238958
6167,,EDGAR PIRES DE CASTRO DF 4880,,-30.170555,-51.150781
5285,,CASSIANO NASCIMENTO ,,-30.028243,-51.230775
6166,,IRMA TERESILDA STEFFEN SN,,-30.025796,-51.119304
999,,DR CAMPOS VELHO 1724,,-30.094138,-51.228612
5757,,DIARIO DE NOTICIAS ,,-30.082695,-51.246733
5755,,DIARIO DE NOTICIAS ,,-30.082202,-51.246607
1609,,ALCIDES DE OLIVEIRA GOMES DF EPTC,,-30.045549,-51.218207
3700,,PALMIRA GOBBI DF 130,,-29.986369,-51.191382
4086,,SERTORIO AL 5500,,-29.997832,-51.148126
3502,,LEOPOLDINO J SANTOS 363,,-30.017525,-51.121977
3503,,LEOPOLDINO J SANTOS DF 353,,-30.017452,-51.121979
5457,,AMAPA SN,,-30.10443,-51.20504
3492,,LEOPOLDINO J SANTOS DF 379,,-30.017317,-51.122767
928,,CAVALHADA 2826,,-30.100788,-51.231139
24,,GUAIBA 3132,,-30.157735,-51.22623
5567,,ASSIS BRASIL 9000,,-29.974372,-51.114797
5568,,ASSIS BRASIL DF 9000,,-29.974756,-51.114695
3807,,ASSIS BRASIL 1638,,-30.010374,-51.170538
903,,VILA MARIA DF INSS,,-30.110476,-51.229895
5177,,ICARAI DF 2030,,-30.096831,-51.247694
1014,,ORFANOTROFIO 1352,,-30.085254,-51.225982
1016,,ORFANOTROFIO 1237,,-30.084375,-51.224934
1028,,ORFANOTROFIO 1190,,-30.084017,-51.224306
1030,,ORFANOTROFIO 1086,,-30.083372,-51.223433
1029,,ORFANOTROFIO 1077,,-30.083294,-51.223457
1035,,ORFANOTROFIO DF 991,,-30.082385,-51.222087
1034,,ORFANOTROFIO DF 950,,-30.082524,-51.222416
1392,,ORFANOTROFIO DF 862,,-30.081191,-51.220465
1395,,ORFANOTROFIO 450,,-30.079533,-51.218291
1396,,ORFANOTROFIO 425,,-30.079415,-51.21827
1398,,ORFANOTROFIO DF 204,,-30.078158,-51.216574
1397,,ORFANOTROFIO 270,,-30.078259,-51.216583
1675,,ORFANOTROFIO 50,,-30.077053,-51.214932
1676,,ORFANOTROFIO DF 30,,-30.07691,-51.214869
3443,,TEN ARY TARRAGO 1522,,-30.029447,-51.132757
695,,EDUARDO PRADO 1961,,-30.135213,-51.218928
1192,,BELEM VELHO ESQ. KANAZAWA,,-30.117304,-51.184743
206,,EUSTAQUIO INACIO DA SILVEIRA 553,,-30.209676,-51.173843
2960,,ANITA GARIBALDI 2099,,-30.022634,-51.174936
5017,,BERNARDINO SILVEIRA DE AMORIM 191,,-29.981827,-51.113578
6164,,ARTUR ROCHA 1109,,-30.032,-51.18829
993,,CAVALHADA 2143,,-30.096829,-51.228127
6163,,SERRARIA 1185,,-30.153623,-51.220008
1623,,AVAI 39,,-30.033658,-51.222647
661,,OSWALDO GONCALVES CRUZ 46,,-30.139154,-51.228053
2480,,GIACOMO MUTTONI DF 60,,-30.113103,-51.162425
1085,,OZORIO JOSE MARTINS 146,,-30.131161,-51.203178
4354,,EDGAR PIRES DE CASTRO 10521,,-30.204643,-51.115746
4355,,EDGAR PIRES DE CASTRO DF 10521,,-30.204522,-51.11575
815,,DR BARCELOS 2144,,-30.101646,-51.237733
6151,,DONA ZULMIRA 448,,-30.095578,-51.227081
1025,,OCTAVIO DE SOUZA 1293,,-30.087111,-51.224248
4208,,ASSIS BRASIL 6501,,-29.993997,-51.129227
2762,,RAFAEL CLARK 205,,-30.066354,-51.15606
2763,,RAFAEL CLARK DF 205,,-30.066287,-51.156005
6152,,SANTO DIAS DA SILVA 144,,-30.0936,-51.130692
1564,,LOUREIRO DA SILVA DF 945,,-30.037543,-51.230557
6161,,FREDERICO MENTZ 118,,-29.978514,-51.196313
3039,,BARAO DE BAGE 138,,-30.040058,-51.155395
3040,,BARAO DE BAGE 334,,-30.037962,-51.155271
6081,,BARAO DE BAGE 655,,-30.035351,-51.154241
3041,,BARAO DE BAGE DF 390,,-30.037509,-51.155097
3200,,BENTO GONCALVES 9099,,-30.076931,-51.127059
3201,,BENTO GONCALVES DF 9099,,-30.076859,-51.127053
3196,,BENTO GONCALVES DF 8831,,-30.076572,-51.129815
3197,,BENTO GONCALVES 8855,,-30.07672,-51.1295
2022,,BENTO GONCALVES DF 2727,,-30.062291,-51.187492
5466,,BENTO GONCALVES 2447,,-30.060964,-51.19026
3854,,FRANCISCO TREIN 461,,-30.015388,-51.159313
4970,,MAIAS 1247,,-29.997738,-51.097249
702,,CAVALHADA 4611,,-30.116362,-51.224845
3211,,JOSE MADRID DF,,-30.04778,-51.149599
4466,,JOAO ANTONIO SILVEIRA DF 4760,,-30.143569,-51.117883
5945,,JOAO ANTONIO SILVEIRA 4850,,-30.14344,-51.117579
339,,LAMI DF 3200,,-30.210443,-51.145827
338,,LAMI 3200,,-30.210424,-51.146363
6053,,LUIZ CORREA DA SILVA DF 62,,-30.221609,-51.072909
6054,,LUIZ CORREA DA SILVA 64,,-30.221839,-51.072953
1809,,TEIXEIRA DE FREITAS 910,,-30.061924,-51.204951
1817,,TEIXEIRA DE FREITAS 732,,-30.060116,-51.20442
1851,,TEIXEIRA DE FREITAS DF 143,,-30.054509,-51.202755
3143,,BENTO GONCALVES 6894,,-30.066286,-51.150341
3142,,BENTO GONCALVES 6623,,-30.066668,-51.150432
1849,,TEIXEIRA DE FREITAS 378,,-30.057143,-51.203534
812,,DR BARCELOS 2012,,-30.102141,-51.239192
2283,,CASEMIRO DE ABREU 1785,,-30.03377,-51.190395
2256,,CASEMIRO DE ABREU 1557,,-30.033467,-51.192035
2257,,CASEMIRO DE ABREU DF 1557,,-30.0334,-51.191955
3491,,PASSO DAS PEDRAS 133,,-30.019842,-51.125866
3473,,SEBASTIAO BARRETO DF 36,,-30.020254,-51.126333
3490,,SEBASTIAO BARRETO AL 36,,-30.020152,-51.126245
4727,,WOLFRAM METZLER 109,,-30.022009,-51.106623
4920,,ALBERTO RANGEL 612,,-30.007839,-51.097922
2045,,LA PLATA 765,,-30.051919,-51.189346
1658,,INDEPENDENCIA 450,,-30.029258,-51.216775
2612,,DOLORES DURAN 916,,-30.082384,-51.12237
575,,PRESIDENTE VARGAS 1596,,-30.017524,-51.25881
615,,PRESIDENTE VARGAS 1810,,-30.015531,-51.259357
605,,CAPITAO COELHO 312,,-30.012981,-51.261859
357,,LAMI 4778,,-30.212248,-51.132015
2105,,VENANCIO AIRES 867,,-30.038616,-51.211955
2097,,VENANCIO AIRES 733,,-30.039324,-51.21316
2095,,VENANCIO AIRES DF 711,,-30.03942,-51.213473
2093,,VENANCIO AIRES 495,,-30.040517,-51.215201
2073,,VENANCIO AIRES DF POSTO IPIRANG,,-30.0409,-51.216004
1619,,VENANCIO AIRES DF 319,,-30.041413,-51.216895
1618,,VENANCIO AIRES 297,,-30.041639,-51.217141
1616,,VENANCIO AIRES 192,,-30.04205,-51.21801
1614,,VENANCIO AIRES 93,,-30.04264,-51.218884
1612,,GARIBALDI 64,,-30.043306,-51.22021
128,,JUCA BATISTA 2705,,-30.148722,-51.20305
1260,,BELEM VELHO 2764,,-30.111221,-51.199429
1642,,SIQUEIRA CAMPOS 1185,,-30.02824,-51.230122
6155,,MANOEL VITORINO 369,,-30.067273,-51.189407
6040,,ASSIS BRASIL 1837,,-30.012013,-51.168988
6154,,JARY 95,,-30.012514,-51.169776
3853,,ANTONIO JOAQUIM MESQUITA 86,,-30.011837,-51.161827
6057,,POLONIA DF 50,,-30.007117,-51.208177
5644,,LOPES TEIXEIRA 36,,-30.010698,-51.142656
3034,,PROTASIO ALVES 6031,,-30.041509,-51.150983
3221,,PROTASIO ALVES DF 6047,,-30.041443,-51.150838
3033,,PROTASIO ALVES DF 5919,,-30.041509,-51.152155
2907,,PROTASIO ALVES 4065,,-30.04053,-51.170698
2906,,PROTASIO ALVES 4028,,-30.040013,-51.171119
3284,,PROTASIO ALVES DF 7585,,-30.042427,-51.135072
3276,,PROTASIO ALVES 7355,,-30.043195,-51.138134
3277,,PROTASIO ALVES DF 7355,,-30.043102,-51.138069
3244,,PROTASIO ALVES DF 6519,,-30.042428,-51.146063
4758,,PROTASIO ALVES DF 13079,,-30.046166,-51.085772
4756,,PROTASIO ALVES 12857,,-30.04622,-51.085927
4650,,PROTASIO ALVES DF 11451,,-30.045582,-51.101896
4649,,PROTASIO ALVES 11451,,-30.045665,-51.101904
5296,,PROTASIO ALVES DF 11040,,-30.042942,-51.103358
5175,,PROTASIO ALVES 10835,,-30.041354,-51.105044
5176,,PROTASIO ALVES 10820,,-30.041257,-51.105126
5295,,PROTASIO ALVES 11040,,-30.042922,-51.103278
4651,,PROTASIO ALVES 10537,,-30.040597,-51.108286
4642,,PROTASIO ALVES DF 10102,,-30.038658,-51.111662
1423,,PADRE CACIQUE 550,,-30.064095,-51.232084
290,,SCHNEIDER 916,,-30.163692,-51.17254
4098,,SERTORIO 6600,,-29.997707,-51.141591
5651,,CONCEICAO 123,,-30.024302,-51.220275
3431,,PROTASIO ALVES 9438,,-30.037869,-51.118298
4640,,PROTASIO ALVES 9999,,-30.038327,-51.113173
4634,,PROTASIO ALVES 9700,,-30.038083,-51.114978
4633,,PROTASIO ALVES 9611,,-30.038046,-51.116246
3419,,PROTASIO ALVES 8644,,-30.039518,-51.125215
3401,,PROTASIO ALVES 8383,,-30.040217,-51.128247
3402,,PROTASIO ALVES 8500,,-30.040078,-51.127918
2957,,DR NILO PECANHA 2218,,-30.02808,-51.170265
5412,,BORGES DE MEDEIROS 727,,-30.032979,-51.227875
1645,,JERONIMO COELHO 257,,-30.032546,-51.226763
4108,,SERTORIO 7113,,-29.998752,-51.135311
5119,,OITO VILA FATIMA-PINTO ,,-30.049113,-51.150706
3315,,DOM LUIZ GUANELLA 262,,-30.027243,-51.14777
696,,EDUARDO PRADO 1531,,-30.132129,-51.218066
2557,,SANTO DIAS DA SILVA 1065,,-30.094857,-51.138016
2556,,SANTO DIAS DA SILVA 1050,,-30.094923,-51.138079
2587,,SANTO DIAS DA SILVA 70,,-30.093857,-51.130789
2019,,GUILHERME ALVES 1228,,-30.058578,-51.190104
6056,,POLONIA DF 50,,-30.007011,-51.20852
4039,,CRUZ JOBIM AL 610,,-30.015076,-51.141766
1994,,EUCLYDES DA CUNHA 585,,-30.050884,-51.195937
187,,LAMI 696,,-30.211255,-51.175458
6150,,VICENTE MONTEGGIA 133,,-30.095581,-51.225385
1568,,WASHINGTON LUIZ 815,,-30.036703,-51.232467
6014,,DR VARGAS NETO 120,,-30.018309,-51.107896
5636,,VAREJAO DF 1121,,-30.221155,-51.090831
1162,,CRISTIANO KRAEMER 2092,,-30.132561,-51.196954
728,,MONTE CRISTO 832,,-30.121537,-51.217911
977,,VICENTE MONTEGGIA 917,,-30.101857,-51.223578
3262,,GUADALAJARA 770,,-30.034254,-51.143459
3321,,GUADALAJARA 433,,-30.031055,-51.143633
3322,,GUADALAJARA DF 405,,-30.030838,-51.14355
4627,,JOAO ANTONIO LOPES 10021,,-30.078749,-51.117865
1050,,SERRARIA DF 79,,-30.144219,-51.216
1071,,CAMPO NOVO DF 1140,,-30.135629,-51.211702
1069,,CAMPO NOVO 674,,-30.138102,-51.213061
6116,,CAMPO NOVO DF 91,,-30.14268,-51.215462
6147,,CAMPO NOVO 496,,-30.13969,-51.214391
1070,,CAMPO NOVO 900,,-30.136269,-51.212925
1047,,SERRARIA 383,,-30.146998,-51.215953
1048,,SERRARIA DF 383,,-30.146929,-51.215857
2365,,CARLOS VON KOSERITZ 1062,,-30.016516,-51.187632
4960,,BERNARDINO DE OLIVEIRA PAIM DF 140,,-29.99729,-51.10003
4959,,BERNARDINO DE OLIVEIRA PAIM 148,,-29.997418,-51.099943
5146,,MAIAS 847,,-29.995425,-51.094502
4981,,MAIAS DF 773,,-29.994607,-51.094628
4017,,GOMES DE FREITAS 215,,-30.011814,-51.143196
4014,,GOMES DE FREITAS 395,,-30.013245,-51.143342
4040,,CRUZ JOBIM 396,,-30.012905,-51.141609
6146,,PAUL HARRIS 46,,-30.016579,-51.142272
6145,,PAUL HARRIS DF 56,,-30.01675,-51.142356
3334,,PAUL HARRIS 955,,-30.025063,-51.14329
3342,,PAUL HARRIS DF 783,,-30.02354,-51.142918
3343,,PAUL HARRIS DF 770,,-30.023131,-51.142909
3344,,PAUL HARRIS 525,,-30.021019,-51.142737
3345,,PAUL HARRIS DF 515,,-30.020879,-51.142669
3370,,PAUL HARRIS DF 261,,-30.018756,-51.142307
3371,,PAUL HARRIS 225,,-30.018456,-51.142382
3333,,PAUL HARRIS DF 1013,,-30.025508,-51.143288
3332,,GUADALAJARA 007,,-30.026709,-51.14358
3331,,GUADALAJARA DF 29,,-30.027111,-51.143541
3263,,GUADALAJARA 605,,-30.032837,-51.143434
3320,,GUADALAJARA 580,,-30.032529,-51.143338
3259,,GUADALAJARA 900,,-30.035575,-51.14366
4950,,BERNARDINO SILVEIRA DE AMORIM 3830,,-30.005786,-51.09281
4938,,BERNARDINO SILVEIRA DE AMORIM 3695,,-30.00604,-51.094446
4936,,BERNARDINO SILVEIRA DE AMORIM 3560,,-30.005904,-51.096112
4923,,BERNARDINO SILVEIRA DE AMORIM 3212/3256,,-30.004713,-51.098731
4934,,BERNARDINO SILVEIRA DE AMORIM DF 3440,,-30.005691,-51.097277
4927,,BERNARDINO SILVEIRA DE AMORIM 2890,,-30.002818,-51.100808
4831,,BERNARDINO SILVEIRA DE AMORIM DF 2050,,-30.000142,-51.105872
4871,,BERNARDINO SILVEIRA DE AMORIM 2050,,-30.00004,-51.105865
4870,,BERNARDINO SILVEIRA DE AMORIM 2020,,-29.999199,-51.106527
6143,,ESTADOS SN,,-29.990582,-51.18385
3969,,INDUSTRIAS 30,,-29.985097,-51.156054
3967,,INDUSTRIAS 110,,-29.985137,-51.157317
3970,,INDUSTRIAS DF 80,,-29.985055,-51.156995
3941,,INDUSTRIAS DF 389,,-29.985203,-51.159638
3942,,INDUSTRIAS 389,,-29.985131,-51.159631
3940,,INDUSTRIAS 490,,-29.985269,-51.16123
3939,,INDUSTRIAS 495,,-29.985206,-51.161346
3937,,INDUSTRIAS 720,,-29.985681,-51.163236
3938,,INDUSTRIAS 697,,-29.985595,-51.163189
3936,,INDUSTRIAS 814,,-29.985921,-51.16433
3935,,INDUSTRIAS 825,,-29.985894,-51.164535
3933,,INDUSTRIAS 972,,-29.986364,-51.166184
3934,,INDUSTRIAS 1131,,-29.986457,-51.166885
4833,,DR MEER MARIO KAUFMANN 95,,-30.00111,-51.104063
4832,,DR MEER MARIO KAUFMANN AL 80,,-30.001025,-51.104486
3839,,INDUSTRIAS 1303,,-29.987011,-51.169207
1816,,DR VOLTAIRE PIRES 995,,-30.061346,-51.205769
2340,,PEDRO IVO 716,,-30.029275,-51.187291
5249,,ASSIS BRASIL 6761,,-29.993087,-51.128277
2085,,IPIRANGA 1813,,-30.046064,-51.209901
2289,,NILOPOLIS DF PCA ENCOL,,-30.036489,-51.186752
5430,,GERMANO GARCIA ,,-30.110446,-51.253295
3069,,ANTONIO CARLOS BERTA DF,,-30.024891,-51.161159
1563,,LOUREIRO DA SILVA 945,,-30.037419,-51.231602
2116,,SANTANA 1275,,-30.048851,-51.207321
1501,,LOUREIRO DA SILVA DF 255,,-30.037029,-51.2384
5453,,JOAO PESSOA DF 2125,,-30.048185,-51.210827
4846,,FRANCISCO SILVEIRA BITENCOURT 1785,,-29.991804,-51.111313
2759,,RAFAEL CLARK AL 611,,-30.069403,-51.155847
2800,,RAFAEL CLARK DF 30,,-30.065358,-51.15532
4504,,JOAO DE OLIVEIRA REMIAO 5788,,-30.119148,-51.108554
483,,JOAO ANTONIO SILVEIRA 2721,,-30.151394,-51.134125
1605,,ERICO VERISSIMO DF 307,,-30.047472,-51.21826
1604,,ERICO VERISSIMO 307,,-30.047416,-51.218354
5399,,RETIRO DA PONTA GROSSA 1220,,-30.181611,-51.188523
5944,,RETIRO DA PONTA GROSSA 990,,-30.180737,-51.18649
132,,RETIRO DA PONTA GROSSA 740,,-30.180033,-51.184088
2079,,JOAO PESSOA DF 2125,,-30.047926,-51.21103
2110,,OSVALDO ARANHA DF 1102,,-30.035273,-51.211843
2083,,PRINCESA ISABEL 342,,-30.04902,-51.209483
2082,,PRINCESA ISABEL 483,,-30.048787,-51.208937
2118,,PRINCESA ISABEL 623,,-30.047829,-51.207279
2029,,IPIRANGA ,,-30.057975,-51.184462
2030,,IPIRANGA ,,-30.057516,-51.184162
2888,,PROF CRISTIANO FISCHER 336,,-30.043032,-51.171935
6135,,MANOEL VITORINO 229,,-30.066206,-51.188417
531,,WENCESLAU ESCOBAR 2380,,-30.110481,-51.254304
525,,WENCESLAU ESCOBAR DF 2442,,-30.110712,-51.254601
5917,,ARMANDO INACIO DA SILVEIRA ,,-30.229694,-51.057038
2823,,IPIRANGA 7895,,-30.05565,-51.158999
2712,,IPIRANGA ,,-30.056961,-51.175234
2722,,IPIRANGA 6681,,-30.056848,-51.17362
5565,,BALTAZAR DE OLIVEIRA GARCIA ,,-30.010149,-51.143975
3897,,DOM DIOGO DE SOUZA 453,,-30.014535,-51.154648
2940,,ANITA GARIBALDI 1877,,-30.023387,-51.177155
2492,,AFONSO LOURENCO MARIANTE 2850,,-30.109745,-51.154587
2476,,AFONSO LOURENCO MARIANTE DF 1111,,-30.113931,-51.167008
2111,,OSVALDO ARANHA 1244,,-30.035862,-51.210543
1634,,OSVALDO ARANHA DF 522,,-30.033085,-51.216905
1633,,OSVALDO ARANHA 480,,-30.032867,-51.217564
2102,,OSVALDO ARANHA DF 904,,-30.034387,-51.213554
2068,,AZENHA SN,,-30.045919,-51.21398
725,,CAVALHADA 4839,,-30.117895,-51.224416
1803,,JOAO PESSOA 2408,,-30.050076,-51.209361
1802,,BENTO GONCALVES DF 369,,-30.051143,-51.209632
1795,,AZENHA 666,,-30.049665,-51.213177
2870,,PROTASIO ALVES DF 3237,,-30.040636,-51.177258
2201,,FARRAPOS ,,-30.020878,-51.211089
5880,,BALTAZAR DE OLIVEIRA GARCIA ,,-30.012823,-51.097888
5881,,BALTAZAR DE OLIVEIRA GARCIA ,,-30.012945,-51.098146
2204,,FARRAPOS ,,-30.020335,-51.210631
5878,,BALTAZAR DE OLIVEIRA GARCIA ,,-30.014771,-51.100273
5879,,BALTAZAR DE OLIVEIRA GARCIA ,,-30.014981,-51.101026
5876,,BALTAZAR DE OLIVEIRA GARCIA ,,-30.016292,-51.105823
5877,,BALTAZAR DE OLIVEIRA GARCIA ,,-30.016227,-51.106069
5875,,BALTAZAR DE OLIVEIRA GARCIA ,,-30.015134,-51.111913
5874,,BALTAZAR DE OLIVEIRA GARCIA ,,-30.015208,-51.111747
5873,,BALTAZAR DE OLIVEIRA GARCIA ,,-30.015193,-51.117598
5872,,BALTAZAR DE OLIVEIRA GARCIA ,,-30.015524,-51.116416
5871,,BALTAZAR DE OLIVEIRA GARCIA ,,-30.013316,-51.123338
5870,,BALTAZAR DE OLIVEIRA GARCIA ,,-30.013424,-51.123343
5868,,BALTAZAR DE OLIVEIRA GARCIA ,,-30.011609,-51.129592
5866,,BALTAZAR DE OLIVEIRA GARCIA ,,-30.010058,-51.133782
5867,,BALTAZAR DE OLIVEIRA GARCIA ,,-30.009876,-51.134343
5869,,BALTAZAR DE OLIVEIRA GARCIA ,,-30.011422,-51.130095
5865,,BALTAZAR DE OLIVEIRA GARCIA ,,-30.009622,-51.14124
1737,,CEL APARICIO BORGES ,,-30.075331,-51.204907
5080,,CEL APARICIO BORGES DF 208,,-30.075639,-51.205175
5864,,BALTAZAR DE OLIVEIRA GARCIA ,,-30.009996,-51.139875
1905,,CEL APARICIO BORGES ,,-30.07325,-51.199159
1746,,CEL APARICIO BORGES ,,-30.074148,-51.203032
1743,,CEL APARICIO BORGES ,,-30.074692,-51.203772
1768,,CEL APARICIO BORGES ,,-30.073508,-51.200113
1908,,CEL APARICIO BORGES ,,-30.072714,-51.195952
1915,,CEL APARICIO BORGES ,,-30.072519,-51.195368
1916,,CEL APARICIO BORGES ,,-30.072216,-51.193429
1917,,CEL APARICIO BORGES ,,-30.071938,-51.192398
1947,,CEL APARICIO BORGES ,,-30.070725,-51.189388
1969,,CEL APARICIO BORGES ,,-30.068394,-51.187701
2021,,CEL APARICIO BORGES ,,-30.063492,-51.185512
2053,,DR SALVADOR FRANCA ,,-30.057524,-51.183897
2028,,DR SALVADOR FRANCA ,,-30.058353,-51.184158
2702,,DR SALVADOR FRANCA ,,-30.053628,-51.181911
6134,,DR SALVADOR FRANCA ,,-30.047882,-51.178482
6133,,SENADOR TARSO DUTRA ,,-30.047017,-51.178094
2701,,DR SALVADOR FRANCA ,,-30.053787,-51.1819
2027,,DR SALVADOR FRANCA ,,-30.063203,-51.18541
2902,,CARLOS GOMES ,,-30.038208,-51.173815
2875,,CARLOS GOMES ,,-30.032997,-51.178877
2915,,CARLOS GOMES ,,-30.029381,-51.180823
2916,,CARLOS GOMES ,,-30.029263,-51.18096
2921,,CARLOS GOMES ,,-30.025849,-51.182462
2920,,CARLOS GOMES ,,-30.024935,-51.183016
2363,,CARLOS GOMES ,,-30.022222,-51.184256
6011,,AUGUSTO MEYER 159,,-30.021843,-51.184583
6010,,DOM PEDRO II DF 1211,,-30.017402,-51.186409
6009,,DOM PEDRO II DF 1140,,-30.017247,-51.186506
6008,,DOM PEDRO II DF 814,,-30.014477,-51.187086
6007,,DOM PEDRO II 864,,-30.01461,-51.18693
6003,,DOM PEDRO II 424,,-30.010077,-51.189177
6005,,DOM PEDRO II ,,-30.007389,-51.190284
6006,,DOM PEDRO II ,,-30.007438,-51.190584
1686,,TERESOPOLIS DF 3398,,-30.081665,-51.212107
1688,,TERESOPOLIS DF 3268,,-30.081365,-51.211259
1689,,TERESOPOLIS 2893,,-30.078599,-51.20868
1690,,TERESOPOLIS 2866,,-30.078599,-51.208583
4343,,LUIZ CORREA DA SILVA 18,,-30.225711,-51.075424
6131,,EXTREMA 250 (3500),,-30.213792,-51.045581
223,,LAMI DF 1830,,-30.212832,-51.162195
346,,LAMI 4488,,-30.211907,-51.134554
157,,LAMI 2799,,-30.213135,-51.152893
345,,LAMI 4517,,-30.21185,-51.134405
4293,,LAMI 7900,,-30.219145,-51.102277
4294,,LAMI 7855,,-30.219169,-51.102154
4292,,LAMI 7500,,-30.219553,-51.104272
226,,LAMI 2100,,-30.212766,-51.157752
225,,LAMI DF 2100,,-30.212785,-51.158134
4291,,LAMI 7610,,-30.219488,-51.104342
343,,LAMI DF 4256,,-30.211431,-51.137396
344,,LAMI 4256,,-30.211392,-51.137199
158,,LAMI 5001,,-30.213641,-51.128244
167,,LAMI 6133,,-30.218042,-51.118218
166,,LAMI DF 6133,,-30.218103,-51.118262
159,,LAMI DF 5001,,-30.21357,-51.128223
4286,,LAMI 6959,,-30.219893,-51.11272
4285,,LAMI DF 6705,,-30.219769,-51.113143
4287,,LAMI 7065,,-30.219999,-51.109694
4288,,LAMI 7000,,-30.21993,-51.109616
4289,,LAMI DF 7319,,-30.219827,-51.107702
173,,HEITOR VIEIRA DF 770,,-30.212309,-51.180418
213,,LAMI 1153,,-30.211239,-51.16948
212,,LAMI 1150,,-30.211127,-51.169642
356,,LAMI 4775,,-30.212228,-51.132271
222,,LAMI 1524,,-30.212542,-51.164013
6129,,LAMI DF 3620,,-30.210339,-51.144792
342,,LAMI 4110,,-30.211027,-51.138543
169,,LAMI DF 5688,,-30.21665,-51.121133
165,,LAMI 5699,,-30.21561,-51.123197
164,,LAMI 5710,,-30.215429,-51.123498
160,,LAMI 5355,,-30.214099,-51.126485
161,,LAMI 5336,,-30.214042,-51.126428
162,,LAMI DF 5568,,-30.214813,-51.125036
163,,LAMI 5598,,-30.214686,-51.125113
207,,LAMI 631,,-30.211029,-51.172754
5070,,LAMI 323,,-30.211544,-51.176038
5840,,JOAO PESSOA 1291,,-30.041935,-51.215667
6128,,VICENTE MONTEGGIA 2531,,-30.113049,-51.213334
6127,,HERVAL ,,-30.093644,-51.177123
2465,,HERVAL 123,,-30.094094,-51.177534
493,,WENCESLAU ESCOBAR 3010,,-30.114681,-51.254387
492,,WENCESLAU ESCOBAR 3037,,-30.114697,-51.254469
521,,WENCESLAU ESCOBAR 2875,,-30.113013,-51.255204
2344,,CARLOS TREIN FILHO 555,,-30.027149,-51.187082
2729,,PROF CRISTIANO FISCHER 1510,,-30.052613,-51.170514
2728,,PROF CRISTIANO FISCHER DF 1510,,-30.052607,-51.170628
2946,,PLINIO BRASIL MILANO ,,-30.019442,-51.177699
3799,,PLINIO BRASIL MILANO 2165,,-30.012778,-51.171618
3798,,PLINIO BRASIL MILANO 2298,,-30.013361,-51.171908
2969,,PLINIO BRASIL MILANO 1835,,-30.017597,-51.173028
6126,,PADRE MAXIMO COGHETTO DF 155,,-30.037139,-51.126221
2282,,NILOPOLIS 250,,-30.038058,-51.189009
2281,,NILOPOLIS 215,,-30.038204,-51.18919
2046,,LA PLATA 766,,-30.051846,-51.189327
1416,,PROF MANOEL LOBATO 420,,-30.07197,-51.218013
1415,,PROF MANOEL LOBATO 467,,-30.072097,-51.218224
3669,,FREDERICO MENTZ 349,,-29.985149,-51.198529
4698,,FUMACA 1145,,-30.03132,-51.106088
1927,,MARIO DE ARTAGAO 102,,-30.065815,-51.193984
1588,,LOUREIRO DA SILVA DF 1670,,-30.036958,-51.225703
1650,,JOAO PESSOA 359,,-30.031595,-51.223775
2108,,SANTA TEREZINHA 378,,-30.040235,-51.210064
2091,,SANTANA 440,,-30.04211,-51.211994
5443,,JERONIMO DE ORNELAS 195,,-30.042309,-51.212643
2776,,ALBION 218,,-30.059818,-51.165684
721,,CAVALHADA 4760,,-30.11762,-51.224378
27,,GUAIBA 2886,,-30.155066,-51.225054
53,,GUAIBA 2638,,-30.152914,-51.224408
28,,GUAIBA DF 2856,,-30.154662,-51.225002
29,,GUAIBA ,,-30.149651,-51.224956
31,,GUAIBA 2035,,-30.147698,-51.224826
645,,GUAIBA ,,-30.147263,-51.224818
54,,GUAIBA DF 2260,,-30.149472,-51.225048
646,,GUAIBA DF 12060,,-30.145358,-51.22529
647,,GUAIBA DF 1646,,-30.143949,-51.225799
500,,GUAIBA 4327,,-30.102937,-51.265783
507,,GUAIBA 4127,,-30.10097,-51.26543
3841,,GRECIA DF 642,,-30.013527,-51.16676
5201,,CAPITAO PEDROSO DF 285,,-30.165385,-51.149952
177,,FRANCISCA DE OLIVEIRA VIEIRA 176,,-30.2099,-51.180091
210,,SANTA HELENA 800,,-30.207863,-51.172927
211,,EUSTAQUIO INACIO DA SILVEIRA DF 766,,-30.208177,-51.172811
1700,,SEPE TIARAJU 362,,-30.072316,-51.21442
6118,,DOM PEDRO II 56,,-30.007797,-51.19029
5212,,JULIO DE CASTILHOS 71,,-30.026451,-51.225969
2704,,FELIZARDO 821,,-30.051585,-51.182153
5308,,FELIZARDO 717,,-30.051307,-51.183071
6117,,BENTO GONCALVES 5890,,-30.064519,-51.156875
5607,,BENTO GONCALVES DF 5866,,-30.064563,-51.156987
726,,CAVALHADA 4656,,-30.116199,-51.224845
2382,,GEDEON LEITE 3485,,-30.14099,-51.175003
6115,,GEDEON LEITE DF 3285,,-30.142492,-51.175466
6114,,GEDEON LEITE 3325,,-30.142342,-51.175352
2383,,GEDEON LEITE 3583,,-30.139641,-51.17427
5099,,JUCA BATISTA 4328,,-30.158496,-51.191949
5258,,PEREIRA PAROBE ,,-30.026916,-51.227459
5257,,PEREIRA PAROBE ,,-30.027093,-51.227396
5256,,PEREIRA PAROBE ,,-30.027257,-51.227338
5255,,PEREIRA PAROBE ,,-30.027438,-51.227273
5087,,PEREIRA PAROBE 147,,-30.027551,-51.227198
2342,,PEDRO IVO 844,,-30.029162,-51.185855
5078,,PEREIRA PAROBE 141,,-30.027689,-51.227186
5455,,PRINCESA ISABEL 160,,-30.049705,-51.210644
1961,,DOZE DE OUTUBRO 505,,-30.066394,-51.189973
5698,,DOZE DE OUTUBRO 373,,-30.065469,-51.189108
1959,,DOZE DE OUTUBRO 453,,-30.06606,-51.18966
1433,,BORGES DE MEDEIROS ,,-30.059334,-51.230951
1599,,GETULIO VARGAS 91,,-30.044889,-51.221106
1469,,GETULIO VARGAS 1671,,-30.059755,-51.223153
1470,,GETULIO VARGAS 1672,,-30.059415,-51.223023
1492,,GETULIO VARGAS 895,,-30.0525,-51.22215
1594,,GETULIO VARGAS 298,,-30.046851,-51.221286
1595,,GETULIO VARGAS 293,,-30.046642,-51.221342
6113,,PROF CRISTIANO FISCHER DF 2354,,-30.060021,-51.169566
6112,,PROF CRISTIANO FISCHER DF 2140,,-30.05833,-51.169433
6111,,FREI GERMANO 127,,-30.060078,-51.167443
2433,,MAJOR TITO DF 427,,-30.115092,-51.178928
5478,,PLINIO BRASIL MILANO DF 757,,-30.021681,-51.183772
580,,PRESIDENTE VARGAS AL 37/31,,-30.028924,-51.252543
850,,ICARAI 1204,,-30.089179,-51.241467
1327,,PINHEIRO BORDA ,,-30.074819,-51.241907
628,,CEL MARCOS 1140,,-30.124288,-51.245592
802,,JOAO MORA 192,,-30.107239,-51.232884
5061,,CARLOS GOMES 111,,-30.023083,-51.183887
2361,,CARLOS GOMES 66,,-30.022506,-51.184088
5413,,BORGES DE MEDEIROS DF 740,,-30.033269,-51.227895
2771,,ENCANTADORA 15,,-30.068159,-51.151689
2559,,SANTO DIAS DA SILVA DF 844,,-30.096552,-51.135683
2558,,SANTO DIAS DA SILVA 844,,-30.096555,-51.135861
2560,,SANTO DIAS DA SILVA AL 710,,-30.096972,-51.134572
2581,,SANTO DIAS DA SILVA DF 323/545,,-30.096806,-51.132761
2561,,SANTO DIAS DA SILVA DF 710,,-30.096892,-51.134596
2583,,SANTO DIAS DA SILVA 180,,-30.094747,-51.131384
579,,PRESIDENTE VARGAS 220,,-30.028967,-51.252621
581,,PRESIDENTE VARGAS 125/127,,-30.027608,-51.253102
578,,PRESIDENTE VARGAS 559,,-30.025946,-51.253792
585,,PRESIDENTE VARGAS 501,,-30.024266,-51.25462
587,,NOSSA SENHORA DA BOA VIAGEM DF 910,,-30.022802,-51.254814
584,,PRESIDENTE VARGAS 1046,,-30.021699,-51.256444
583,,PRESIDENTE VARGAS 1007,,-30.021774,-51.256449
573,,PRESIDENTE VARGAS 1109,,-30.020562,-51.257577
574,,PRESIDENTE VARGAS 1417,,-30.01909,-51.258194
576,,PRESIDENTE VARGAS DF 1624,,-30.017142,-51.258831
616,,PRESIDENTE VARGAS 1805,,-30.015534,-51.259271
613,,CAPITAO COELHO AL 78,,-30.014219,-51.259789
606,,CAPITAO COELHO 317,,-30.01293,-51.261741
6070,,CEL MASSOT 59,,-30.1008,-51.247728
1887,,CAPITAO PADILHA 177,,-30.080688,-51.19534
2582,,SANTO DIAS DA SILVA 267/269,,-30.094699,-51.131449
5462,,CEL FERNANDO MACHADO DF 883,,-30.034909,-51.228908
4765,,ANTONIO SEVERINO 509,,-30.018505,-51.100275
4782,,BALTAZAR DE OLIVEIRA GARCIA 2843,,-30.015365,-51.117184
4766,,ANTONIO SEVERINO 472,,-30.01881,-51.100215
3185,,ERNESTO DORNELLES 105,,-30.055981,-51.145263
4194,,ASSIS BRASIL 6041,,-29.997528,-51.131482
5558,,ASSIS BRASIL 6203,,-29.996565,-51.130946
3783,,GEN EMILIO LUCIO ESTEVES 129,,-30.007321,-51.178644
4447,,EXTREMA 605,,-30.214861,-51.043436
4446,,EXTREMA 37,,-30.21371,-51.047468
5964,,EXTREMA 3955,,-30.213967,-51.049837
4445,,EXTREMA DF 3955,,-30.213891,-51.04993
4395,,EXTREMA 3409,,-30.212089,-51.058803
4393,,EXTREMA 3033,,-30.21086,-51.062107
4745,,WOLFRAM METZLER 830,,-30.022685,-51.102503
6110,,JUSCELINO KUBITSCHEK DE OLIVEIRA 1095,,-30.020995,-51.108573
4187,,SILVESTRE FELIX RODRIGUES 183,,-30.007299,-51.121305
4181,,SILVESTRE FELIX RODRIGUES 567,,-30.006814,-51.122063
4280,,SOUZA MELO 766,,-29.980991,-51.127984
4279,,SOUZA MELO 747,,-29.981077,-51.128196
4273,,SOUZA MELO 374,,-29.981208,-51.131706
4276,,SOUZA MELO 536,,-29.981106,-51.129931
4272,,SOUZA MELO 375,,-29.981285,-51.131784
4270,,SOUZA MELO DF 207,,-29.981302,-51.133376
4271,,SOUZA MELO 227,,-29.981367,-51.133227
4223,,TOLEDO PIZA 670,,-29.984376,-51.133396
4221,,TOLEDO PIZA 608,,-29.984817,-51.133449
4220,,TOLEDO PIZA ,,-29.986404,-51.133333
4217,,TOLEDO PIZA 321,,-29.987647,-51.13316
4216,,TOLEDO PIZA 320,,-29.98772,-51.133237
4218,,MARTINS BASTOS 366,,-29.98797,-51.130973
4226,,MARTINS BASTOS 635,,-29.987741,-51.128362
4219,,MARTINS BASTOS 427,,-29.987871,-51.130483
4228,,MARTINS BASTOS 692,,-29.987765,-51.127588
4229,,MARTINS BASTOS 787,,-29.98765,-51.126807
4890,,BERNARDINO SILVEIRA PASTORIZA 260,,-29.991507,-51.106093
4893,,BERNARDINO SILVEIRA PASTORIZA 235,,-29.991344,-51.105346
4894,,BERNARDINO SILVEIRA PASTORIZA 470,,-29.991263,-51.104069
4895,,BERNARDINO SILVEIRA PASTORIZA 521,,-29.99112,-51.103494
4896,,BERNARDINO SILVEIRA PASTORIZA 651,,-29.991029,-51.101884
4990,,BERNARDINO SILVEIRA PASTORIZA ,,-29.99082,-51.097092
4991,,BERNARDINO SILVEIRA PASTORIZA 1179,,-29.990756,-51.096369
4992,,MAIAS 686,,-29.991187,-51.095566
4984,,MAIAS 865,,-29.99248,-51.095275
4983,,MAIAS 850,,-29.992762,-51.095114
4982,,MAIAS 865,,-29.994445,-51.094749
4978,,MAIAS 953,,-29.996225,-51.094508
4884,,DONARIO BRAGA ,,-29.998033,-51.103066
4882,,DONARIO BRAGA 54,,-29.997636,-51.104779
4876,,DONARIO BRAGA 11,,-29.997225,-51.106537
4873,,BERNARDINO SILVEIRA DE AMORIM 1844,,-29.996364,-51.10698
4881,,BERNARDINO SILVEIRA DE AMORIM 1626,,-29.994313,-51.107016
4878,,BERNARDINO SILVEIRA DE AMORIM 1440,,-29.992638,-51.108276
4879,,BERNARDINO SILVEIRA PASTORIZA 65,,-29.991884,-51.107986
4889,,JOSE FERREIRA JARDIM 484,,-29.990026,-51.107777
4888,,JOSE FERREIRA JARDIM ,,-29.988496,-51.108355
4861,,BERNARDINO SILVEIRA DE AMORIM 911,,-29.988095,-51.110095
4865,,BERNARDINO SILVEIRA DE AMORIM 658,,-29.985808,-51.110939
5022,,BERNARDINO SILVEIRA DE AMORIM 225,,-29.982527,-51.112946
4957,,DONARIO BRAGA 124,,-29.998133,-51.101538
4958,,DONARIO BRAGA 133,,-29.99803,-51.10106
4963,,SANTA ROSA DE LIMA 722,,-29.996243,-51.098094
4962,,SANTA ROSA DE LIMA 625,,-29.996389,-51.098
4961,,MAIAS DF 1370,,-29.99938,-51.097674
4931,,MAIAS DF 1454,,-30.00043,-51.097679
4942,,MAIAS 1454,,-30.000623,-51.097589
4930,,MAIAS 1574,,-30.002322,-51.097794
4929,,MAIAS 1629,,-30.002602,-51.097997
4925,,MAIAS 1817,,-30.004149,-51.098312
4926,,MAIAS 2380,,-30.004155,-51.09823
4939,,BERNARDINO SILVEIRA DE AMORIM 3680,,-30.005993,-51.094649
6109,,VICENTE MONTEGGIA 517,,-30.099644,-51.225296
1300,,SENADOR TEOTONIO VILELA 36,,-30.081938,-51.192159
498,,CEL MARCOS DF 725,,-30.122799,-51.249533
5473,,PROF OSCAR PEREIRA ,,-30.105935,-51.172994
3779,,ASSIS BRASIL DF 999,,-30.008228,-51.175542
4212,,OLIVEIRA LOPES DF 36,,-29.992322,-51.128195
3596,,SAO PEDRO 1455,,-30.013076,-51.194906
6108,,JOSE ALOISIO FILHO 545,,-29.983528,-51.187037
6107,,SAO JOSEMARIA ESCRIVA ,,-30.054132,-51.168798
6106,,FREI GERMANO 801,,-30.054714,-51.167195
2070,,GEN LIMA E SILVA 1380,,-30.043785,-51.216249
1857,,SAO LUIZ 822,,-30.049938,-51.202756
2892,,PROF ABILIO AZAMBUJA DF 365,,-30.048577,-51.168705
694,,EDUARDO PRADO 1954,,-30.134805,-51.218636
281,,GEDEON LEITE 624,,-30.155504,-51.18299
6100,,UIRAPURU 60,,-30.055081,-51.1486
3480,,MANOEL ELIAS DF 1742,,-30.030738,-51.120965
3482,,MANOEL ELIAS 1345,,-30.027069,-51.120218
3484,,MANOEL ELIAS 1336,,-30.026921,-51.12012
3485,,MANOEL ELIAS 1096,,-30.024737,-51.120035
3507,,MANOEL ELIAS 574,,-30.020317,-51.119647
4169,,MANOEL ELIAS 120,,-30.016109,-51.119159
6099,,JAU DF 80,,-30.005137,-51.15834
4997,,EDUARDO NADRUZ DF 215,,-29.997417,-51.093145
4664,,MARTIM FELIX BERTA DF 2674,,-30.031276,-51.113485
6098,,EDUARDO NADRUZ 210,,-29.997346,-51.093126
6097,,LUIZ CAETANO ANTINOLFI DF 217,,-30.01988,-51.123347
6065,,LUIZ CAETANO ANTINOLFI DF 222,,-30.019989,-51.123169
6095,,GAURAMA 65,,-30.097496,-51.228829
3195,,JOAO DE OLIVEIRA REMIAO DF 119,,-30.077623,-51.131326
56,,SERRARIA DF 1247,,-30.154024,-51.219947
5215,,VISCONDE DO CAIRU ,,-30.026209,-51.226995
851,,CHUI 75,,-30.082479,-51.242671
852,,CHUI DF 75,,-30.082321,-51.242775
1462,,CORREA LIMA 715,,-30.065148,-51.223555
2576,,JOAO DE OLIVEIRA REMIAO 3360,,-30.102184,-51.122772
489,,WENCESLAU ESCOBAR 3479,,-30.118565,-51.253374
5321,,SENADOR SALGADO FILHO 120,,-30.030798,-51.226359
506,,GUAIBA 54,,-30.105095,-51.262308
568,,GUAIBA 6,,-30.096988,-51.259584
571,,GUAIBA DF 1826,,-30.095899,-51.251668
58,,SERRARIA 1004,,-30.152109,-51.219078
524,,WENCESLAU ESCOBAR DF 2759,,-30.11233,-51.255207
536,,WENCESLAU ESCOBAR 2237,,-30.107815,-51.253932
554,,WENCESLAU ESCOBAR 1870,,-30.10519,-51.253652
537,,WENCESLAU ESCOBAR 2150,,-30.107327,-51.253813
535,,WENCESLAU ESCOBAR 2296,,-30.108408,-51.253895
553,,WENCESLAU ESCOBAR 1823,,-30.104967,-51.253702
6092,,DORIVAL CASTILHO MACHADO DF 757,,-30.164414,-51.194372
6090,,DORIVAL CASTILHO MACHADO DF 450,,-30.161688,-51.192846
6091,,DORIVAL CASTILHO MACHADO 600,,-30.163004,-51.193573
6089,,DORIVAL CASTILHO MACHADO DF 303,,-30.160398,-51.192139
6088,,DORIVAL CASTILHO MACHADO DF 147,,-30.15922,-51.191495
3038,,BARAO DE BAGE 177,,-30.039832,-51.155302
6080,,SERTORIO 6750,,-29.997703,-51.139676
3239,,ANTONIO CARVALHO 2667,,-30.045811,-51.14334
3173,,ANTONIO CARVALHO 1481,,-30.056265,-51.147486
3311,,SATURNINO DE BRITO 1601,,-30.027571,-51.15062
3228,,PROTASIO ALVES 6220,,-30.041752,-51.148439
2956,,DR NILO PECANHA 1851,,-30.027852,-51.171639
2174,,ALBERTO BINS DF 1008,,-30.027716,-51.21632
3310,,SATURNINO DE BRITO 1594,,-30.027589,-51.150702
5499,,AZENHA ,,-30.050311,-51.210364
562,,WENCESLAU ESCOBAR 1275,,-30.101248,-51.249756
635,,DONA PAULINA 340,,-30.114629,-51.248177
634,,DONA PAULINA DF 370,,-30.114683,-51.248242
636,,DONA PAULINA 481,,-30.115577,-51.247801
6075,,LIBERAL 880,,-30.115059,-51.24469
640,,LIBERAL 840,,-30.115039,-51.244835
639,,LIBERAL DF 638,,-30.115675,-51.246539
740,,LIBERAL 1010,,-30.114758,-51.243978
641,,LIBERAL 1015,,-30.114719,-51.243637
744,,ALVARO GUTERRES DF 102,,-30.113921,-51.24221
743,,LIBERAL DF 1115,,-30.114214,-51.242423
746,,PADRE JOAO BATISTA REUS 2053,,-30.112968,-51.242415
774,,PADRE JOAO BATISTA REUS 2271,,-30.112207,-51.240264
777,,PADRE JOAO BATISTA REUS 2510,,-30.111358,-51.238093
778,,PADRE JOAO BATISTA REUS 2567,,-30.111274,-51.237624
791,,PADRE JOAO BATISTA REUS 2709,,-30.110758,-51.236219
798,,PADRE JOAO BATISTA REUS 2985,,-30.109722,-51.233432
6074,,PADRE JOAO BATISTA REUS ,,-30.109232,-51.232091
6073,,PADRE JOAO BATISTA REUS DF 3456,,-30.108242,-51.229166
905,,PADRE JOAO BATISTA REUS DF 3352,,-30.1085,-51.229917
797,,PADRE JOAO BATISTA REUS 2843,,-30.110128,-51.234521
4388,,SAO CAETANO 1613,,-30.182768,-51.07826
4387,,SAO CAETANO DF 1600,,-30.182837,-51.078388
981,,CAVALHADA DF 2235,,-30.097301,-51.229939
922,,CAVALHADA 3256,,-30.10495,-51.229732
1444,,JOSE DE ALENCAR 546,,-30.059983,-51.225958
2788,,CERES 262,,-30.056882,-51.167008
6059,,CLEBERTO GUEDES 01,,-30.081484,-51.193298
1900,,MANDUCA NUNES 219,,-30.076614,-51.193748
5304,,DR SALVADOR FRANCA 1427,,-30.051193,-51.180432
1893,,MANDUCA NUNES 345,,-30.077775,-51.193464
623,,CEL MARCOS 2488,,-30.131734,-51.234618
621,,CEL MARCOS 2326,,-30.131258,-51.235903
644,,CEL MARCOS 2243,,-30.13096,-51.236895
642,,CEL MARCOS 1959,,-30.129548,-51.239375
643,,CEL MARCOS DF 1835,,-30.128936,-51.240056
629,,CEL MARCOS 1645,,-30.127666,-51.241865
630,,CEL MARCOS 1608,,-30.127543,-51.241898
633,,CEL MARCOS 1527,,-30.126541,-51.242849
631,,CEL MARCOS DF 1284,,-30.125071,-51.244216
632,,CEL MARCOS 1334,,-30.1253,-51.243716
497,,CEL MARCOS 725,,-30.122768,-51.250109
4301,,OTAVIANO JOSE PINTO 950,,-30.232944,-51.095972
4310,,OTAVIANO JOSE PINTO 915,,-30.227465,-51.098969
4302,,OTAVIANO JOSE PINTO DF 950,,-30.233016,-51.09584
6023,,OTAVIANO JOSE PINTO DF 2055,,-30.236638,-51.09444
4306,,OTAVIANO JOSE PINTO 2800,,-30.237763,-51.08765
4309,,OTAVIANO JOSE PINTO DF 2565,,-30.237415,-51.089341
5906,,OTAVIANO JOSE PINTO DF 50,,-30.241313,-51.079281
1580,,LOUREIRO DA SILVA 1520,,-30.037662,-51.226464
2056,,VALPARAISO 926,,-30.054632,-51.184979
2301,,GOETHE ,,-30.025748,-51.199634
3638,,SERTORIO DF 1600,,-30.001966,-51.189831
1875,,PADRE TESCHAUER DF 65,,-30.078941,-51.197562
1876,,COMENDADOR ANTONIO FONTOURA DF 85,,-30.078652,-51.197449
1891,,CAPISTRANO DE ABREU DF 4,,-30.078538,-51.194343
5994,,BEIRA RIO 175,,-30.210615,-51.188571
112,,SERRARIA 2601,,-30.165971,-51.214899
2353,,PLINIO BRASIL MILANO 136,,-30.022337,-51.189751
3834,,SEVERO DULLIUS 2015,,-29.98823,-51.17818
4554,,TANAUI DA SILVA BOEIRA 41,,-30.121663,-51.100752
4171,,CARLOS ESTEVAO DF 905,,-30.016118,-51.118463
5357,,BORGES DE MEDEIROS 549,,-30.031349,-51.227758
3901,,FORTE DF 382,,-30.013839,-51.152833
2100,,SANTO ANTONIO 915,,-30.033457,-51.214516
2147,,RAMIRO BARCELOS 2411,,-30.040471,-51.208142
2188,,RAMIRO BARCELOS 1090,,-30.028021,-51.208712
2434,,DR SARMENTO BARATA DF 176,,-30.113601,-51.178294
1002,,COELHO DA COSTA ,,-30.090881,-51.226865
5408,,BORGES DE MEDEIROS 659,,-30.032226,-51.227822
900,,JOAO MORA 385,,-30.108845,-51.232147
5915,,DONA CRISTINA 535,,-30.086507,-51.228048
570,,GUAIBA 1924,,-30.095975,-51.251656
2781,,BENTO GONCALVES 5720,,-30.063608,-51.159264
3238,,ANTONIO CARVALHO ,,-30.046665,-51.143618
3156,,ANTONIO CARVALHO DF 345,,-30.063355,-51.149755
3155,,ANTONIO CARVALHO 333,,-30.063222,-51.149555
3247,,ANTONIO CARVALHO ,,-30.044409,-51.14309
3192,,ANTONIO CARVALHO 2160,,-30.049585,-51.1443
3190,,ANTONIO CARVALHO 2189,,-30.049604,-51.144219
3188,,ANTONIO CARVALHO 2048,,-30.050794,-51.145135
3189,,ANTONIO CARVALHO 2029,,-30.050847,-51.145078
3176,,ANTONIO CARVALHO 1662,,-30.054148,-51.147219
3174,,ANTONIO CARVALHO DF 1471,,-30.056244,-51.147566
3159,,ANTONIO CARVALHO DF 1221,,-30.058689,-51.148014
3160,,ANTONIO CARVALHO 1251,,-30.058577,-51.147897
3157,,ANTONIO CARVALHO 450,,-30.061349,-51.148884
3158,,ANTONIO CARVALHO 573,,-30.06129,-51.148791
2650,,LUIZ MOSCHETTI 910,,-30.073696,-51.173525
4412,,QUIRINAS 2300,,-30.155414,-51.084063
4411,,QUIRINAS DF 2300,,-30.155488,-51.08409
3441,,TEN ARY TARRAGO DF 1280,,-30.031205,-51.134116
2315,,QUINTINO BOCAIUVA DF 400,,-30.021464,-51.198474
2186,,RAMIRO BARCELOS 1274,,-30.029888,-51.208395
2275,,IJUI 268,,-30.04117,-51.186311
5435,,SARMENTO LEITE 499,,-30.033557,-51.221358
2970,,PLINIO BRASIL MILANO 2052,,-30.016574,-51.17196
6067,,GUAIBA DF 2600,,-30.152543,-51.224511
648,,GUAIBA 1586,,-30.143328,-51.226022
649,,GUAIBA 12060,,-30.145181,-51.225246
650,,GUAIBA DF 1472,,-30.142569,-51.226592
652,,GUAIBA DF 1316,,-30.141298,-51.227175
651,,GUAIBA 1442,,-30.142062,-51.226793
653,,GUAIBA 1316,,-30.141037,-51.227165
6066,,COMENDADOR MANOEL PEREIRA 161,,-30.025818,-51.220935
501,,GUAIBA 4310,,-30.102725,-51.265564
503,,GUAIBA DF 4622,,-30.10452,-51.264615
504,,GUAIBA 4622,,-30.104459,-51.264543
505,,GUAIBA ,,-30.104972,-51.262823
1644,,BORGES DE MEDEIROS ,,-30.033577,-51.227833
5333,,SENADOR SALGADO FILHO 236,,-30.030876,-51.22521
4300,,OTAVIANO JOSE PINTO DF 1570,,-30.234898,-51.095159
4299,,OTAVIANO JOSE PINTO 1570,,-30.234984,-51.095255
5503,,ASSIS BRASIL ,,-30.010217,-51.145599
5233,,DOM FELICIANO DF 78,,-30.029674,-51.222337
3840,,INDUSTRIAS 1290,,-29.986984,-51.168771
1656,,INDEPENDENCIA 270,,-30.029381,-51.21897
2155,,SAO MANOEL 368,,-30.037134,-51.204837
2040,,BARAO DO AMAZONAS 1185,,-30.054106,-51.188861
4868,,BERNARDINO SILVEIRA DE AMORIM 453,,-29.984463,-51.111832
4886,,BERNARDINO SILVEIRA DE AMORIM 1101,,-29.989996,-51.109392
4880,,BERNARDINO SILVEIRA DE AMORIM DF 1626,,-29.994498,-51.10708
5291,,BERNARDINO SILVEIRA DE AMORIM 786,,-29.987925,-51.11007
55,,SERRARIA 1389,,-30.155288,-51.219835
5411,,BORGES DE MEDEIROS DF 708,,-30.032712,-51.227857
6044,,DR SALVADOR FRANCA ,,-30.058677,-51.18434
1738,,CARLOS FERREIRA 165,,-30.080708,-51.202714
1259,,CARLOS FERREIRA 325,,-30.082122,-51.204207
4290,,LAMI 7319,,-30.21988,-51.107467
1517,,DUQUE DE CAXIAS 671,,-30.033844,-51.234786
2782,,BENTO GONCALVES ,,-30.063409,-51.159812
2774,,BENTO GONCALVES 5085,,-30.062145,-51.164595
2775,,BENTO GONCALVES ,,-30.062124,-51.163817
3633,,BENJAMIN CONSTANT ,,-30.007334,-51.190401
3794,,INDUSTRIARIOS 408,,-30.014962,-51.173766
3676,,A J RENNER 1034,,-29.988294,-51.194572
3653,,A J RENNER 13,,-29.996372,-51.197163
3716,,A J RENNER 1820,,-29.981842,-51.192491
3717,,A J RENNER DF 1820,,-29.981844,-51.192405
3731,,A J RENNER DF 2230,,-29.977504,-51.191018
3014,,TEIXEIRA MENDES 766,,-30.033272,-51.164991
2276,,BARAO DO AMAZONAS DF 116,,-30.044637,-51.18505
3684,,A J RENNER DF 1580,,-29.983942,-51.193079
927,,CAVALHADA 2655,,-30.100883,-51.231212
911,,CAVALHADA 4317,,-30.113895,-51.226343
3546,,FARRAPOS 2377,,-30.011806,-51.203094
3066,,JOAO WALLIG 1795,,-30.024905,-51.163381
1504,,PRESIDENTE JOAO GOULART ,,-30.033778,-51.240262
1566,,ANTONIO KLINGER FILHO ,,-30.038446,-51.230218
1042,,OCTAVIO DE SOUZA 822,,-30.084458,-51.220313
1673,,OCTAVIO DE SOUZA DF 40,,-30.079725,-51.214034
1674,,OCTAVIO DE SOUZA 40,,-30.079764,-51.213959
1043,,OCTAVIO DE SOUZA 684,,-30.083601,-51.219102
3730,,A J RENNER DF 2050,,-29.978962,-51.191467
3680,,A J RENNER DF 1378,,-29.985859,-51.193698
3656,,A J RENNER DF 280,,-29.99437,-51.196526
3657,,A J RENNER 332,,-29.993926,-51.196463
3673,,A J RENNER 495,,-29.991622,-51.195555
3672,,A J RENNER 580,,-29.991518,-51.195607
3677,,A J RENNER SN,,-29.987961,-51.194375
3734,,A J RENNER 2230,,-29.977368,-51.191066
3729,,A J RENNER 2050,,-29.979312,-51.191666
3683,,A J RENNER 1542,,-29.984327,-51.19329
3681,,A J RENNER 1378,,-29.985743,-51.193746
2653,,SAIBREIRA 10,,-30.076284,-51.173312
3615,,PERNAMBUCO DF 925,,-30.001423,-51.197791
6062,,DONA LAURA DF 1020,,-30.029062,-51.195289
1155,,CRISTIANO KRAEMER 3493,,-30.142834,-51.198616
1154,,CRISTIANO KRAEMER DF 3503,,-30.142908,-51.198634
4176,,DANTE ANGELO PILLA 122,,-30.013488,-51.118954
2785,,MARCONE 440,,-30.058177,-51.160768
4177,,DANTE ANGELO PILLA 258,,-30.011111,-51.118644
4178,,DANTE ANGELO PILLA 485,,-30.010926,-51.118532
1321,,PADRE CACIQUE DF 3116,,-30.081448,-51.245176
4281,,ALCIDES MAIA 1037,,-29.98129,-51.126752
2442,,PROF OSCAR PEREIRA ,,-30.106166,-51.173103
4568,,SAO MARCOS-LOMBA DO PINHEIRO 317,,-30.11644,-51.097325
4567,,SAO MARCOS-LOMBA DO PINHEIRO DF 317,,-30.116349,-51.097429
1100,,VENTOS DO SUL 150,,-30.124036,-51.208527
99,,RETIRO DA PONTA GROSSA 1710,,-30.183781,-51.193588
100,,RETIRO DA PONTA GROSSA DF 1750,,-30.183719,-51.193627
1152,,CRISTIANO KRAEMER DF 3553,,-30.143313,-51.199685
6061,,PROF OSCAR PEREIRA ,,-30.106011,-51.173087
4507,,JOAO DE OLIVEIRA REMIAO 5516,,-30.116282,-51.108652
1565,,ANTONIO KLINGER FILHO DF,,-30.039468,-51.229722
6060,,INTERLAGOS 20,,-30.080527,-51.194236
1297,,IRMAS PAULINAS 25,,-30.082192,-51.194041
6058,,IRMAS PAULINAS 489,,-30.082563,-51.192415
5550,,OSVALDO ARANHA 1244,,-30.035991,-51.21029
2103,,OSVALDO ARANHA 894 AO 924,,-30.034509,-51.213319
2881,,PROF CRISTIANO FISCHER 906,,-30.047984,-51.172499
4836,,G VILA FRATERNIDADE 29,,-30.001051,-51.102704
1499,,ERICO VERISSIMO 627,,-30.050721,-51.218213
1485,,ERICO VERISSIMO 57,,-30.058659,-51.217859
1598,,AURELIANO DE FIGUEIREDO PINTO 882,,-30.043581,-51.221912
5575,,ERICO VERISSIMO ,,-30.045314,-51.219104
2069,,AZENHA 183,,-30.045657,-51.214036
1796,,AZENHA 651,,-30.049295,-51.213258
4264,,ASSIS BRASIL 7898,,-29.985668,-51.119828
4850,,ASSIS BRASIL 7940,,-29.984146,-51.118053
4191,,SERTORIO 7250,,-29.999284,-51.133899
5178,,ICARAI 1949,,-30.096206,-51.246796
2152,,PROTASIO ALVES ,,-30.037302,-51.206024
4250,,ASSIS BRASIL 7032,,-29.990469,-51.125367
4277,,ALCIDES MAIA 796,,-29.98335,-51.126597
4278,,ALCIDES MAIA 747,,-29.983531,-51.126502
4251,,ALCIDES MAIA 299,,-29.987852,-51.126169
4248,,ALCIDES MAIA 98,,-29.989921,-51.126101
2113,,OSVALDO ARANHA DF 1262,,-30.036269,-51.209913
2101,,OSVALDO ARANHA DF 828,,-30.034003,-51.214125
2150,,PROTASIO ALVES DF 140,,-30.037113,-51.206833
2160,,PROTASIO ALVES 470,,-30.038008,-51.203406
1666,,EDGAR KOETZ ,,-30.023668,-51.219891
2811,,BENTO GONCALVES DF 6122,,-30.065155,-51.154408
3146,,BENTO GONCALVES 6854,,-30.067838,-51.147049
3148,,BENTO GONCALVES 7500,,-30.068987,-51.143547
3152,,BENTO GONCALVES ,,-30.071866,-51.139609
3150,,BENTO GONCALVES 8359,,-30.074946,-51.134852
3149,,BENTO GONCALVES 8359,,-30.075028,-51.13486
3151,,BENTO GONCALVES DF,,-30.071857,-51.139745
3147,,BENTO GONCALVES 7500,,-30.069046,-51.1436
3145,,BENTO GONCALVES 6854,,-30.06791,-51.147067
2723,,IPIRANGA ,,-30.057395,-51.174875
955,,JOSE CORREA DA SILVA 567,,-30.106753,-51.222663
3243,,PROTASIO ALVES 6555,,-30.042559,-51.145947
953,,JOSE CORREA DA SILVA 439,,-30.106898,-51.224486
2032,,BARAO DO AMAZONAS DF 1580,,-30.057152,-51.190523
4495,,JOAO DE OLIVEIRA REMIAO 6650,,-30.124483,-51.10375
1346,,PADRE CACIQUE 878,,-30.066178,-51.234715
6055,,LEONARDO DA VINCI CONDOMINIO MARIANTE 24,,-30.111395,-51.156183
940,,JOSE CORREA DA SILVA 45,,-30.103361,-51.22557
3916,,CONSELHEIRO D'AVILA DF 398,,-30.00104,-51.158489
5924,,CAPIVARI 1511,,-30.082306,-51.232609
1425,,PADRE CACIQUE DF 372,,-30.062726,-51.231436
3031,,BOM JESUS DF 520,,-30.043555,-51.15192
3032,,BOM JESUS 520,,-30.043491,-51.151793
3169,,UIRAPURU 121,,-30.055518,-51.150196
2235,,DONA ALICE 62,,-30.04634,-51.196697
3170,,UIRAPURU DF 122,,-30.055448,-51.150231
3432,,MANOEL ELIAS 2387,,-30.036178,-51.121954
776,,LANDEL DE MOURA 2064,,-30.110827,-51.240324
1464,,CORREA LIMA 640,,-30.064403,-51.223257
3111,,EXTREMA DF 5126,,-30.213622,-51.051743
6052,,EXTREMA 4126,,-30.213568,-51.051663
1105,,MONTE CRISTO 453,,-30.119589,-51.213669
2393,,DR VERGARA DF 5069,,-30.117239,-51.183418
1558,,AURELIANO DE FIGUEIREDO PINTO 625,,-30.043355,-51.225163
1610,,ERICO VERISSIMO DF,,-30.044569,-51.219957
1498,,ERICO VERISSIMO 751,,-30.051813,-51.218287
1497,,ERICO VERISSIMO DF 843,,-30.052547,-51.218259
1775,,CEL GASTAO HASLOCHER MAZERON ,,-30.060064,-51.215627
1486,,ERICO VERISSIMO ,,-30.058739,-51.217814
564,,GUAIBA 88,,-30.097792,-51.262735
622,,CEL MARCOS 2449,,-30.13187,-51.234457
1752,,PROF OSCAR PEREIRA 2226,,-30.069966,-51.204503
5042,,PROF OSCAR PEREIRA 2177,,-30.069641,-51.20471
1624,,LOUREIRO DA SILVA 2001,,-30.03496,-51.22202
2807,,CAPITAO PEDRO WERLANG SN,,-30.058512,-51.156593
6051,,ARAPEI 468,,-30.086677,-51.230348
6033,,ARAPEI 481,,-30.086718,-51.230574
6050,,CRUZEIRO DO SUL 2976,,-30.08602,-51.231129
6049,,URSA MAIOR 215,,-30.085556,-51.23246
6048,,ORFANOTROFIO 1554,,-30.086313,-51.2274
6047,,MANOEL LOPES MEIRELLES DF 1035,,-30.036956,-51.14434
3257,,MANOEL LOPES MEIRELLES 287,,-30.035142,-51.145632
3256,,MANOEL LOPES MEIRELLES 21,,-30.036898,-51.144293
3251,,MANOEL LOPES MEIRELLES DF 42,,-30.03404,-51.147613
405,,JOAO ANTONIO SILVEIRA 518,,-30.163201,-51.150646
486,,JOAO ANTONIO SILVEIRA 3000,,-30.147678,-51.131175
2504,,JOAO ANTONIO SILVEIRA SN,,-30.147275,-51.13087
408,,JOAO ANTONIO SILVEIRA 728,,-30.161572,-51.14914
407,,JOAO ANTONIO SILVEIRA 673,,-30.162123,-51.149545
411,,JOAO ANTONIO SILVEIRA 891,,-30.160335,-51.148166
419,,JOAO ANTONIO SILVEIRA 1340,,-30.157478,-51.144898
418,,JOAO ANTONIO SILVEIRA DF 1340,,-30.157559,-51.14487
417,,JOAO ANTONIO SILVEIRA 1027,,-30.158917,-51.146571
412,,JOAO ANTONIO SILVEIRA 1098,,-30.15902,-51.146868
453,,JOAO ANTONIO SILVEIRA 1711,,-30.155227,-51.140745
469,,JOAO ANTONIO SILVEIRA 2230,,-30.15333,-51.136771
420,,JOAO ANTONIO SILVEIRA 1540,,-30.156243,-51.143544
421,,JOAO ANTONIO SILVEIRA DF 1558,,-30.156175,-51.143324
6046,,JOAO ANTONIO SILVEIRA 3337,,-30.14378,-51.12798
2512,,JOAO ANTONIO SILVEIRA 3330,,-30.144342,-51.128429
313,,JOAO ANTONIO SILVEIRA 80,,-30.165285,-51.154152
406,,JOAO ANTONIO SILVEIRA 497,,-30.163253,-51.150587
317,,JOAO ANTONIO SILVEIRA DF 330,,-30.16437,-51.152088
316,,JOAO ANTONIO SILVEIRA 330,,-30.164356,-51.152207
5778,,JOAO ANTONIO SILVEIRA 1960,,-30.154548,-51.138202
2516,,JOAO ANTONIO SILVEIRA 4012,,-30.143206,-51.121706
2515,,JOAO ANTONIO SILVEIRA DF 4012,,-30.1431,-51.122526
5067,,JOAO ANTONIO SILVEIRA DF 4065,,-30.142508,-51.125673
6045,,JOAO ANTONIO SILVEIRA 4065,,-30.143038,-51.12443
4471,,JOAO ANTONIO SILVEIRA 5500,,-30.145942,-51.110664
4472,,JOAO ANTONIO SILVEIRA DF 5515,,-30.146061,-51.109981
314,,JOAO ANTONIO SILVEIRA 165,,-30.165139,-51.153745
484,,JOAO ANTONIO SILVEIRA 2830,,-30.14996,-51.132537
485,,JOAO ANTONIO SILVEIRA DF 2882,,-30.149444,-51.132057
4468,,JOAO ANTONIO SILVEIRA DF 5088,,-30.143914,-51.115414
4473,,JOAO ANTONIO SILVEIRA 6350,,-30.1452,-51.108046
4476,,JOAO ANTONIO SILVEIRA DF 6440,,-30.142628,-51.105065
4474,,JOAO ANTONIO SILVEIRA DF 6383,,-30.144666,-51.107531
4475,,JOAO ANTONIO SILVEIRA 6440,,-30.143273,-51.105447
4477,,JOAO ANTONIO SILVEIRA 6436,,-30.141702,-51.104302
4480,,JOAO ANTONIO SILVEIRA 6892,,-30.139302,-51.102239
4479,,JOAO ANTONIO SILVEIRA DF 6800,,-30.141224,-51.103636
4481,,JOAO ANTONIO SILVEIRA 6015,,-30.138774,-51.101859
4520,,JOAO ANTONIO SILVEIRA 6710,,-30.137211,-51.100242
4521,,JOAO ANTONIO SILVEIRA 7019,,-30.1372,-51.099614
4522,,JOAO ANTONIO SILVEIRA 7500,,-30.136542,-51.097983
5483,,JOSE DE ALENCAR 1339,,-30.060536,-51.218776
2351,,VINTE QUATRO DE OUTUBRO 1720,,-30.021665,-51.191323
2313,,VINTE QUATRO DE OUTUBRO 1000,,-30.023554,-51.198761
2214,,VINTE QUATRO DE OUTUBRO 382,,-30.026842,-51.203639
565,,GUAIBA DF 64,,-30.097424,-51.261835
567,,GUAIBA DF 6,,-30.097049,-51.25963
